altitude,ch4_moleratio,ch4_pressure,ch4_qc,ch4_rssi,ch4_temp,computer_time,estimated_heading,frame,gps_fix,heading,heading_available,hpr_type,latitude,log_time,longitude,pitch,rmys_wdir_cf,rmys_wspd2D_cf,roll,spd_over_grnd,true_track,true_wdir,true_wspd,wdir_cf_corrected,wspd_cf_corrected,system_id
802.1,1.97472,92.8767,1,54.5687,17.7487,2018-07-04T11:24:38Z,167.5,46384,1,167.5,1,N,51.484145675,4358.439402,-113.075640588333,-7.43,168.3,14.99,2.5,17.4361111111111,168.13,10.7992349605026,4.13374575615272,-6.04097862738809,13.7145700620277,pomelo_1
801,1.97418,92.8925,1,54.7621,17.7116,2018-07-04T11:24:39Z,165.7,46394,1,165.7,1,N,51.48400667,4359.377003,-113.07559204,-7.33,174.5,15.24,2.1,17.6083333333333,167.09,352.709946768525,3.5687189782996,-0.0342066417367164,14.0611116580161,pomelo_1
799.6,1.97071,92.9054,1,54.8322,17.9295,2018-07-04T11:24:40Z,163.1,46404,1,163.1,1,N,51.4838530416667,4360.328633,-113.075528901667,-7.63,167,15.12,2.8,17.5722222222222,164.52,11.533057039035,4.4745357428883,-7.08778455435254,13.7370099075243,pomelo_1
798.5,1.97301,92.9113,1,54.6511,17.8725,2018-07-04T11:24:41Z,160.75,46414,1,160.75,1,N,51.4837172766667,4361.266233,-113.07546174,-7.75,165.3,15.4,2.8,17.4833333333333,161.73,12.578886425054,4.43324400195259,-8.45668461269071,13.8649213608718,pomelo_1
797.2,1.97488,92.9231,1,54.4719,17.8729,2018-07-04T11:24:42Z,158.66,46424,1,158.66,1,N,51.4835700916667,4362.203834,-113.075378205,-7.83,167.8,14.98,3,17.2916666666667,159.85,5.71966602261263,4.1613185617319,-6.44359629160516,13.6684910211618,pomelo_1
795.9,1.96863,92.9377,1,54.5488,17.6636,2018-07-04T11:24:43Z,156.9,46434,1,156.9,1,N,51.483439285,4363.141437,-113.075295056667,-8.1,166.5,14.38,2.3,17.5277777777778,157.53,359.214206938885,4.98117996600655,-7.49040221856967,13.0297374122673,pomelo_1
794.6,1.9754,92.9577,1,54.6264,17.7627,2018-07-04T11:24:44Z,155.3,46444,1,155.3,1,N,51.4833085766667,4364.080071,-113.075205001667,-8.06,167,14.72,2.4,17.5916666666667,156.06,358.863254913055,4.71157395993458,-7.08778455435254,13.3735969470078,pomelo_1
793.2,1.96828,92.9542,1,54.8149,17.9176,2018-07-04T11:24:45Z,153.75,46454,1,153.75,1,N,51.4831645733333,4365.017976,-113.075097405,-8.01,170.6,16.12,1.4,17.65,153.91,356.031422959884,2.98787877180641,-4.16357954825537,14.92453763727,pomelo_1
791.8,1.97901,92.9782,1,54.7812,17.7475,2018-07-04T11:24:46Z,151.74,46464,1,151.74,1,N,51.4830373583333,4365.95554,-113.074993455,-8.31,167.6,15.3,3,17.5694444444444,151.65,354.724343841244,4.03702098004184,-6.60464335729199,13.9454441485948,pomelo_1
790.4,1.98422,93.0105,1,54.8231,17.5761,2018-07-04T11:24:47Z,148.94,46474,1,148.94,1,N,51.482914035,4366.893139,-113.074882463333,-8.37,168.7,14.64,2.6,17.3055555555556,149.56,350.058511809197,4.23223846369894,-5.71888449601437,13.4233640304229,pomelo_1
788.9,1.9733,93.0176,1,54.818,17.7472,2018-07-04T11:24:48Z,146.65,46484,1,146.65,1,N,51.482782095,4367.830741,-113.074750625,-8.16,163.7,15.32,4,17.2444444444444,146.71,358.433097032234,4.4294452968086,-9.74506113818546,13.676536859279,pomelo_1
787.4,1.96962,93.0317,1,54.8416,17.8983,2018-07-04T11:24:49Z,144.66,46494,1,144.66,1,N,51.482667065,4368.765437,-113.074625431667,-8.28,168.9,14.53,2.8,17.2222222222222,144.57,342.421709444375,4.1455525772183,-5.55783743032754,13.3369502945905,pomelo_1
785.8,1.97321,93.0546,1,54.7202,17.6306,2018-07-04T11:24:50Z,141.87,46504,1,141.87,1,N,51.4825426366667,4369.703037,-113.07447749,-8.14,166.8,14.35,2.9,17.2722222222222,142.2,343.691148018907,4.68849929864163,-7.24883162003937,13.0234632845519,pomelo_1
784.3,1.96274,93.0505,1,54.8066,17.9137,2018-07-04T11:24:51Z,140.27,46514,1,140.27,1,N,51.48243343,4370.640639,-113.074335688333,-8.21,170.3,16.06,0.7,17.4444444444444,140.31,344.025982657646,2.87867869885227,-4.43050797051961,14.8540610975904,pomelo_1
782.8,1.95927,93.0657,1,54.5665,17.6683,2018-07-04T11:24:52Z,137.66,46524,1,137.66,1,N,51.4823266716667,4371.578239,-113.074186951667,-8.22,171.6,15.67,1.8,17.5305555555556,137.75,332.54725553315,3.16293915491041,-3.10476598248135,14.4950406378957,pomelo_1
781,1.97088,93.0833,1,54.6548,17.874,2018-07-04T11:24:53Z,136.14,46534,1,136.14,1,N,51.482211095,4372.523328,-113.074012263333,-8.13,165.9,16.81,-0.5,17.7972222222222,135.65,351.430610163216,3.38205577019578,-7.97354341563022,15.1828122828401,pomelo_1
779.4,1.97889,93.118,1,54.8362,17.7314,2018-07-04T11:24:53Z,134.12,46544,1,134.12,1,N,51.4821088516667,4373.476301,-113.073847408333,-8.61,167.2,15.61,-0,18.0277777777778,134.3,338.330765858664,4.31326783284325,-6.92673748866571,14.1974273467379,pomelo_1
777.3,1.97675,93.115,1,54.641,17.8053,2018-07-04T11:24:54Z,132.42,46554,1,132.42,1,N,51.4819978633333,4374.413902,-113.073654931667,-8.79,169.8,17.2,-1.8,18.3166666666667,131.82,336.965579896163,2.75600511935647,-4.83312563473675,15.8651258229072,pomelo_1
775.4,1.96011,93.1274,1,54.5109,18.0545,2018-07-04T11:24:55Z,130.64,46564,1,130.64,1,N,51.4818993183333,4375.351501,-113.073475033333,-8.97,166.3,17.44,-0.3,18.5861111111111,130.16,344.137400506436,3.52615038039241,-7.6514492842565,15.7855119915338,pomelo_1
773.7,1.97226,93.1696,1,54.7428,18.0534,2018-07-04T11:24:56Z,128.22,46574,1,128.22,1,N,51.481804515,4376.289103,-113.07328757,-8.39,166.5,15.64,-0.3,18.7416666666667,128.05,329.124569582364,5.02163168981809,-7.49040221856967,14.1714251132031,pomelo_1
771.9,1.96063,93.1579,1,54.642,18.0082,2018-07-04T11:24:57Z,126.35,46584,1,126.35,1,N,51.4817033116667,4377.216123,-113.073072913333,-8.19,168.6,18.42,-0.2,18.6888888888889,126.09,346.891489056315,2.49363471038539,-5.79940802885778,16.8800914372211,pomelo_1
770.4,1.96816,93.1767,1,54.6666,18.208,2018-07-04T11:24:58Z,124.61,46594,1,124.61,1,N,51.4816158616667,4378.153755,-113.072875105,-7.76,162,19.08,1.9,18.7722222222222,124.4,359.895502431491,3.87513644742783,-11.1139611965236,16.8818613385619,pomelo_1
768.9,1.96721,93.2189,1,54.7335,18.1951,2018-07-04T11:24:59Z,122.98,46604,1,122.98,1,N,51.4815321683333,4379.091324,-113.072671226667,-7.44,170.8,16.18,0.1,18.8333333333333,122.75,316.79104256515,4.00721954958746,-3.9518168351006,14.9774285525674,pomelo_1
767.3,1.96018,93.179,1,54.7137,18.3297,2018-07-04T11:25:00Z,122.79,46614,1,122.79,1,N,51.4814405466667,4380.028924,-113.072442585,-7.33,165.4,20.05,-0.1,18.9305555555556,122.9,11.0768091194725,2.87102355805084,-8.37616107984729,18.0610112131145,pomelo_1
766,1.96049,93.2113,1,54.6126,18.69,2018-07-04T11:25:01Z,122.39,46624,1,122.39,1,N,51.481358665,4380.961506,-113.072234745,-6.94,167.3,19.55,-0.8,19.0416666666667,122.14,358.322494073818,2.45977365945298,-6.84621395582229,17.790447288413,pomelo_1
764.6,1.96806,93.2172,1,54.502,18.3669,2018-07-04T11:25:02Z,122.07,46634,1,122.07,1,N,51.4812676666667,4381.899108,-113.072002968333,-6.64,166.4,19.58,-0.3,19,122.26,1.40663663604871,2.78925122130018,-7.57092575141309,17.73197498693,pomelo_1
763.5,1.96231,93.2278,1,54.4995,18.3093,2018-07-04T11:25:03Z,121.47,46644,1,121.47,1,N,51.4811859883333,4382.836709,-113.07179537,-6.06,169,21.06,3.4,18.8611111111111,121.99,42.4833197771632,2.05518107582155,-5.47731389748412,19.3412612000174,pomelo_1
762.5,1.96834,93.226,1,54.3129,18.3862,2018-07-04T11:25:04Z,120.76,46654,1,120.76,1,N,51.4811072316667,4383.774309,-113.07158876,-5.79,165.1,21.2,4,18.5361111111111,121.42,36.6425529746167,3.0867198393783,-8.61773167837754,19.0664978211373,pomelo_1
761.6,1.97385,93.233,1,54.5564,18.4194,2018-07-04T11:25:05Z,120.06,46664,1,120.06,1,N,51.48102164,4384.711911,-113.071361666667,-5.59,161.3,19.99,6.5,18.2888888888889,120.27,14.2211407528132,3.77733822229155,-11.6776259264276,17.6225596861513,pomelo_1
760.8,1.97568,93.2735,1,54.4688,18.3104,2018-07-04T11:25:06Z,119.24,46674,1,119.24,1,N,51.4809481783333,4385.648698,-113.071157993333,-5.14,159.3,18.64,5.5,18.1388888888889,120.05,359.798973978567,4.59771883158023,-13.280691091674,16.3134526330434,pomelo_1
760.2,1.97913,93.297,1,54.5446,18.1643,2018-07-04T11:25:07Z,119.27,46684,1,119.27,1,N,51.480875845,4386.5863,-113.070956565,-4.58,154.7,18.39,2.8,17.825,119.97,1.01661375162115,5.51328179087332,-16.9563858845871,15.9052880128346,pomelo_1
759.6,1.96797,93.3064,1,54.2974,18.1255,2018-07-04T11:25:08Z,118.47,46694,1,118.47,1,N,51.4807977116667,4387.523904,-113.07073774,-4.4,161.8,16.4,6.6,17.1777777777778,118.89,343.454856777792,4.18724758211895,-11.2750082622105,14.4954646238816,pomelo_1
759.1,1.96272,93.3105,1,54.4686,18.3903,2018-07-04T11:25:08Z,119.19,46704,1,119.19,1,N,51.480731165,4388.461503,-113.070545968333,-4.18,160.7,17.71,-1,16.6555555555556,119.9,6.74583678037646,3.77063935950429,-12.1607671234881,15.5639607052256,pomelo_1
758.7,1.96898,93.3311,1,54.4016,18.4106,2018-07-04T11:25:09Z,119.75,46714,1,119.75,1,N,51.4806581866667,4389.404688,-113.070341946667,-4.25,163.9,16.21,1.2,16.075,119.56,352.542145803731,2.96137266528224,-9.58401407249863,14.4863376345845,pomelo_1
758.4,1.96645,93.3364,1,54.5789,18.3993,2018-07-04T11:25:10Z,120.22,46724,1,120.22,1,N,51.4805948916667,4390.342289,-113.070166648333,-3.88,157.7,17.79,-2.8,15.2861111111111,120.77,26.2882901882483,4.05400731636618,-14.5591936283394,15.5053342456544,pomelo_1
758.1,1.96482,93.3698,1,54.6495,18.4513,2018-07-04T11:25:11Z,120.35,46734,1,120.35,1,N,51.4805337,4391.279928,-113.070000956667,-3.58,151.2,15.26,-0.1,14.4944444444444,120.56,4.34155373403104,4.97826110806699,-19.7531101835426,13.0810828667519,pomelo_1
758,1.98105,93.3751,1,54.3872,18.4011,2018-07-04T11:25:12Z,120.16,46744,1,120.16,1,N,51.4804699616667,4392.217493,-113.069827406667,-2.58,157,14.83,0.1,13.6361111111111,121.06,11.931214810645,3.76841350283629,-15.1185384881305,12.9021901980774,pomelo_1
758.1,1.98607,93.3563,1,54.5004,18.1118,2018-07-04T11:25:13Z,119.69,46754,1,119.69,1,N,51.48041567,4393.161053,-113.069678716667,-2.32,161.5,13.8,0.5,13.0611111111111,119.74,4.90506191826167,2.69066275127457,-11.5165788607408,12.1783308075884,pomelo_1
758.1,1.98467,93.3992,1,54.3532,17.9896,2018-07-04T11:25:14Z,120.01,46764,1,120.01,1,N,51.4803576083333,4394.110631,-113.069520065,-2.57,155,11.65,-0.4,12.3944444444444,120.87,348.459885093442,4.12425494489379,-16.7166666589623,10.083681371667,pomelo_1
758.1,1.97696,93.4021,1,54.4964,18.2235,2018-07-04T11:25:15Z,120.49,46774,1,120.49,1,N,51.4803072483333,4395.048231,-113.06938544,-2.5,152.3,11.35,1.6,12.0222222222222,120.91,349.796248336515,4.2789032919616,-18.8741396895851,9.75658427307003,pomelo_1
758.1,1.97918,93.4174,1,54.5616,18.3598,2018-07-04T11:25:16Z,121.78,46784,1,121.78,1,N,51.48025816,4395.985833,-113.06925477,-2.17,147.1,10.07,-4.7,11.6027777777778,122.09,347.296068828635,5.39529244253937,-25.8305024537693,8.6903570427966,pomelo_1
758.4,1.9783,93.3986,1,54.4367,18.2019,2018-07-04T11:25:17Z,122.95,46794,1,122.95,1,N,51.480201635,4396.923433,-113.069116193333,-1.16,153.6,11.72,-3,11.4361111111111,123.52,3.48610139343118,3.68647699454065,-17.8353563785445,10.1080460156645,pomelo_1
758.8,1.98798,93.4051,1,54.3775,17.9726,2018-07-04T11:25:18Z,123.32,46804,1,123.32,1,N,51.4801507066667,4397.860411,-113.068996728333,-0.4,148.8,10.68,1,10.9305555555556,124.61,0.437746730351406,4.57568277942356,-23.0714787485516,9.17763937909892,pomelo_1
759.3,1.98788,93.418,1,54.4553,17.9514,2018-07-04T11:25:19Z,123.1,46814,1,123.1,1,N,51.48009783,4398.798012,-113.06887136,-0,151,8.08,2.8,10.2444444444444,123.57,336.274339850857,4.46258492121948,-19.9129230006258,6.92277764845349,pomelo_1
759.7,1.98351,93.4162,1,54.4344,18.0285,2018-07-04T11:25:20Z,122.85,46824,1,122.85,1,N,51.4800539466667,4399.735613,-113.068766788333,0.54,152.5,7.07,4,9.38333333333333,123.36,332.159922254407,4.15592053735318,-18.7143268725019,6.08054100223015,pomelo_1
760.2,1.97456,93.4009,1,54.4056,18.1772,2018-07-04T11:25:21Z,122.2,46834,1,122.2,1,N,51.4800134666667,4400.673213,-113.068668198333,1.12,152.2,7.29,4.8,8.92222222222222,123.15,338.279261662164,3.70663667087645,-18.9540460981268,6.2649711377918,pomelo_1
760.8,1.98201,93.4009,1,54.389,18.2334,2018-07-04T11:25:22Z,121.21,46844,1,121.21,1,N,51.479972375,4401.617991,-113.068564176667,1.53,153.1,7.69,4.2,8.35555555555555,122.15,348.17476538886,3.02322168967953,-18.2348884212524,6.62387958628407,pomelo_1
761.4,1.97754,93.4004,1,54.4701,18.2747,2018-07-04T11:25:23Z,120.45,46854,1,120.45,1,N,51.4799381066667,4402.571219,-113.068474666667,1.73,148,7.53,4,7.93611111111111,121.39,354.574714982976,3.46236560785669,-24.3698428451247,6.48370988277372,pomelo_1
762,1.98083,93.4009,1,54.4065,18.2858,2018-07-04T11:25:24Z,119.5,46864,1,119.5,1,N,51.4799024416667,4403.50882,-113.06837848,1.99,145.5,5.62,4.4,7.53888888888889,120.07,335.814633837799,4.04094328675073,-28.4272306469156,4.86957841636784,pomelo_1
762.5,1.9738,93.3927,1,54.3452,18.2822,2018-07-04T11:25:24Z,119.03,46874,1,119.03,1,N,51.479873555,4404.446457,-113.068298085,1.96,142.7,5.81,3.6,6.83055555555556,120.14,347.334118637975,3.8724562860383,-32.9715049849215,5.06996854147642,pomelo_1
763,1.96653,93.3957,1,54.3115,18.4033,2018-07-04T11:25:25Z,118.88,46884,1,118.88,1,N,51.47984564,4405.399648,-113.068219661667,1.68,149.1,4.29,4,5.79722222222222,119.51,330.561395746558,2.81510615975087,-22.5845922123366,3.683762756688,pomelo_1
763.3,1.96723,93.3957,1,54.3005,18.4649,2018-07-04T11:25:26Z,117.99,46894,1,117.99,1,N,51.4798261266667,4406.375787,-113.068163161667,1.65,120.1,3.3,4.2,4.30555555555556,118.57,341.099007148338,3.50199753134379,-53.3420930550628,2.92894365070242,pomelo_1
763.6,1.96291,93.3933,1,54.2785,18.5216,2018-07-04T11:25:27Z,116.94,46904,1,116.94,1,N,51.4798120033333,4407.313388,-113.068119535,1.66,97.4,3.63,3.4,2.69444444444444,116.71,353.346082738693,3.58142865182458,-76.6087301994531,3.07775508669579,pomelo_1
763.7,1.97406,93.3915,1,54.3528,18.553,2018-07-04T11:25:28Z,115.32,46914,1,115.32,1,N,51.4798039033333,4408.250993,-113.06809193,1.67,78.6,3.6,3.3,2.36388888888889,114.48,342.786810131906,4.30764869255665,-99.6983040606374,3.25542566048611,pomelo_1
763.9,1.97804,93.3851,1,54.3689,18.5172,2018-07-04T11:25:29Z,109.82,46924,1,109.82,1,N,51.4797969083333,4409.18859,-113.068060661667,1.76,88.6,4.89,3.3,2.86111111111111,106.86,347.891274302487,4.83057160730437,-85.9252902415728,4.25824627787783,pomelo_1
764.1,1.97586,93.3927,1,54.4812,18.5029,2018-07-04T11:25:30Z,97.84,46934,1,97.84,1,N,51.4797916516667,4410.131714,-113.068011041667,0.99,109.6,5.74,8,4.06944444444444,89.11,340.923719395766,4.40732603518315,-65.9741010549994,4.97889315017043,pomelo_1
764.2,1.98131,93.3921,1,54.5758,18.4058,2018-07-04T11:25:31Z,79.83,46944,1,79.83,1,N,51.4797964866667,4411.069315,-113.067954626667,-0.35,131.5,8.12,8.7,4.73611111111111,72.9,357.005390416532,4.45387053962398,-43.5053785480779,7.24908293179195,pomelo_1
764.2,1.9741,93.361,1,54.7882,18.5323,2018-07-04T11:25:32Z,58.43,46954,1,58.43,1,N,51.4798168966667,4412.006916,-113.0678894,-2.23,141.6,10.12,9.7,5.55277777777778,54.67,348.751680983818,4.99537074336523,-34.7567556177094,8.85570822382902,pomelo_1
764.1,1.97905,93.344,1,54.6562,18.5106,2018-07-04T11:25:33Z,45.91,46964,1,45.91,1,N,51.4798495266667,4412.944516,-113.06782966,-3.1,150.2,11.28,6.4,6.7,43.94,352.017381431651,3.96046418144616,-20.7993415795486,9.65945221008853,pomelo_1
763.9,1.98333,93.3281,1,54.4953,18.5055,2018-07-04T11:25:34Z,37.88,46974,1,37.88,1,N,51.47989439,4413.888381,-113.067767773333,-4.02,156,12.49,3,7.88055555555556,39.18,346.797705437096,4.05025244780754,-15.9176025735464,10.8384891455022,pomelo_1
763.7,1.98553,93.3141,1,54.4292,18.4939,2018-07-04T11:25:35Z,37.75,46984,1,37.75,1,N,51.4799546283333,4414.82215,-113.067691521667,-4.79,152.3,15.74,2.6,8.86388888888889,39.21,348.326464299614,6.05993928285738,-18.8741396895851,13.5302763399227,pomelo_1
763.4,1.97345,93.3158,1,54.6392,18.5231,2018-07-04T11:25:36Z,42.8,46994,1,42.8,1,N,51.4800101533333,4415.75975,-113.067614616667,-4.9,159.6,14.2,-2.1,9.11944444444444,44.2,357.520041735787,4.2632320799947,-13.0409718660492,12.4372875057879,pomelo_1
763,1.98324,93.3276,1,54.6269,18.5016,2018-07-04T11:25:37Z,52.46,47004,1,52.46,1,N,51.4800639066667,4416.712976,-113.067514071667,-4.54,153.3,12.96,-3.9,9.26944444444444,54.62,342.014246344677,4.04815580135215,-18.0750756041692,11.1689516223257,pomelo_1
762.7,1.97229,93.3505,1,54.5838,18.6764,2018-07-04T11:25:38Z,62.66,47014,1,62.66,1,N,51.4801013433333,4417.650576,-113.067409603333,-4.6,159.7,11.63,-4.4,9.5,65.89,341.614971052161,2.85534335464356,-12.9610654575077,10.1889528557589,pomelo_1
762.3,1.98324,93.3546,1,54.7779,18.6092,2018-07-04T11:25:39Z,76.79,47024,1,76.79,1,N,51.480127815,4418.602132,-113.06727608,-3.48,155.5,12.07,-4.5,9.99722222222222,76.87,347.605846311861,2.95320318788497,-16.3171346162544,10.4606016057597,pomelo_1
762.1,1.9762,93.3557,1,54.629,18.688,2018-07-04T11:25:40Z,89.4,47034,1,89.4,1,N,51.48013374,4419.539732,-113.067143003333,-2.71,151.1,9.73,-3.4,10.5305555555556,91.25,319.168190298607,4.15105373002473,-19.8330165920842,8.33857652931177,pomelo_1
762,1.97949,93.3563,1,54.5995,18.5485,2018-07-04T11:25:40Z,101.59,47044,1,101.59,1,N,51.48012372,4420.477332,-113.067006745,-2.6,150.5,12.14,-6.9,10.4972222222222,101.81,359.89204488016,3.72378352422623,-20.3124550433337,10.388141183825,pomelo_1
761.9,1.98026,93.371,1,54.5911,18.4397,2018-07-04T11:25:41Z,109.88,47054,1,109.88,1,N,51.480095875,4421.414932,-113.06686028,-3.09,148.1,10.01,-6,10.7277777777778,111,342.434217452938,4.71454568007576,-24.207547333053,8.6169579242497,pomelo_1
761.7,1.98231,93.3792,1,54.5601,18.5111,2018-07-04T11:25:42Z,115.29,47064,1,115.29,1,N,51.48006,4422.354485,-113.066732306667,-3.45,150.2,8.83,-3.2,10.8972222222222,116.36,332.337032150396,4.79447673461231,-20.7993415795486,7.56143289140795,pomelo_1
761.5,1.98919,93.3892,1,54.638,18.3391,2018-07-04T11:25:43Z,117.17,47074,1,117.17,1,N,51.4800187916667,4423.292087,-113.066604063333,-3.57,147,10.5,0.9,11.25,117.23,349.2557165102,5.04990948741236,-25.992797965841,9.06371881452012,pomelo_1
761.2,1.98879,93.3927,1,54.5747,18.374,2018-07-04T11:25:44Z,118.01,47084,1,118.01,1,N,51.4799703083333,4424.229688,-113.06645921,-3.91,140.9,10.15,1.8,11.4722222222222,118.45,349.219119605307,6.80570645588255,-35.8928242022109,8.89780582340373,pomelo_1
760.9,1.98128,93.4033,1,54.6909,18.3414,2018-07-04T11:25:45Z,119.12,47094,1,119.12,1,N,51.479924955,4425.167322,-113.066328551667,-4.12,142.2,9.01,0.5,11.6861111111111,119.48,339.994776227292,6.80132871298743,-33.7829825452797,7.87236394880229,pomelo_1
760.5,1.98138,93.3968,1,54.4612,18.3487,2018-07-04T11:25:46Z,119.74,47104,1,119.74,1,N,51.479872295,4426.104888,-113.066182008333,-4.03,155.3,8.32,0.6,11.6833333333333,119.94,323.33914965341,5.20783285886813,-16.4769474333375,7.20692747392982,pomelo_1
760.2,1.9793,93.3951,1,54.4975,18.4112,2018-07-04T11:25:47Z,120.61,47114,1,120.61,1,N,51.47982342,4427.06326,-113.066050673333,-4.21,154.7,10.43,0.5,11.7638888888889,120.97,341.396142363269,4.14055802553694,-16.9563858845871,9.02078053147716,pomelo_1
759.9,1.98696,93.4062,1,54.4799,18.3907,2018-07-04T11:25:48Z,121.02,47124,1,121.02,1,N,51.4797682916667,4428.000859,-113.065906246667,-3.97,149.3,9.47,1.8,11.6944444444444,121.52,338.343256158075,5.24632642391735,-22.2600011881933,8.1276979959901,pomelo_1
759.5,1.97142,93.398,1,54.5072,18.5622,2018-07-04T11:25:49Z,121.61,47134,1,121.61,1,N,51.4797186733333,4428.938492,-113.06577552,-4.27,165.1,9.91,-0.2,11.9055555555556,122.08,326.470135821561,3.40897735036988,-8.61773167837754,8.91268836827693,pomelo_1
759.1,1.96869,93.388,1,54.4259,18.7125,2018-07-04T11:25:50Z,122.03,47144,1,122.03,1,N,51.4796673866667,4429.876062,-113.065645018333,-4.39,165,11.56,-0.8,11.975,122.57,346.716263788569,2.39513386556094,-8.69825521122101,10.3911179335469,pomelo_1
758.8,1.97275,93.3775,1,54.5229,18.6641,2018-07-04T11:25:51Z,121.82,47154,1,121.82,1,N,51.479609675,4430.81835,-113.065498418333,-4.03,164.8,12.2,-0.1,12.133333333333301,122.35,355.790360756165,2.22497257367025,-8.85930227690784,10.9547729979236,pomelo_1
758.4,1.97826,93.3839,1,54.4344,18.5376,2018-07-04T11:25:52Z,121.62,47164,1,121.62,1,N,51.4795576866667,4431.755951,-113.065365421667,-4.18,164.3,13.05,0.2,12.1555555555556,121.84,13.7689108896337,2.02517517013395,-9.26191994112492,11.6870251728163,pomelo_1
758.1,1.97886,93.3933,1,54.4542,18.5552,2018-07-04T11:25:53Z,122.03,47174,1,122.03,1,N,51.47950539,4432.69355,-113.06523236,-4.28,158.7,12.57,-1.1,12.0638888888889,122.35,4.53342778455746,3.0213008815513702,-13.7601295429236,10.9840206022616,pomelo_1
757.7,1.96737,93.3869,1,54.3791,18.6372,2018-07-04T11:25:54Z,122.47,47184,1,122.47,1,N,51.479446555,4433.631153,-113.06508699,-4.37,157,12.77,0.7,11.9833333333333,123.1,9.9323111145002,3.27992654564891,-15.1185384881305,11.1099776688772,pomelo_1
757.4,1.97494,93.4138,1,54.4275,18.6868,2018-07-04T11:25:55Z,122.73,47194,1,122.73,1,N,51.4793940916667,4434.568753,-113.064958581667,-3.67,154.1,11.69,1.7,11.8305555555556,123,357.207322691737,3.7850567206085,-17.4358243358365,10.0950465449525,pomelo_1
757.3,1.97955,93.4133,1,54.4892,18.5679,2018-07-04T11:25:56Z,122.97,47204,1,122.97,1,N,51.4793363333333,4435.512382,-113.064816228333,-2.92,153.4,11.28,-0.5,11.675,123.5,355.024792988202,3.94620488810028,-17.9951691956277,9.72360279571723,pomelo_1
757.3,1.98025,93.4092,1,54.4965,18.3887,2018-07-04T11:25:56Z,123.63,47214,1,123.63,1,N,51.479283935,4436.449981,-113.064690055,-2.29,156.2,10.84,-1.8,11.6638888888889,123.99,348.885149624055,3.70177048152176,-15.7577897564632,9.41149373692091,pomelo_1
757.4,1.97697,93.3986,1,54.4749,18.5158,2018-07-04T11:25:57Z,124.5,47224,1,124.5,1,N,51.4792309683333,4437.387581,-113.064566088333,-2.25,158.2,9.61,-1.7,11.55,124.96,336.604115645051,4.03476053735838,-14.1596615856315,8.38665250916687,pomelo_1
757.5,1.97445,93.4074,1,54.3682,18.6845,2018-07-04T11:25:58Z,124.67,47234,1,124.67,1,N,51.47917212,4438.325182,-113.064432165,-2,155.6,11.74,0.2,11.4777777777778,125.1,4.47266358910579,3.39216269898355,-16.2372282077127,10.1772118565082,pomelo_1
757.7,1.97184,93.4174,1,54.3986,18.6968,2018-07-04T11:25:59Z,124.74,47244,1,124.74,1,N,51.4791184366667,4439.259786,-113.064310446667,-1.74,144.4,10.97,1.7,11.6388888888889,125.14,359.847754770496,5.9466833414838,-30.2124812797036,9.53162083563527,pomelo_1
757.9,1.97838,93.3992,1,54.4316,18.6624,2018-07-04T11:26:00Z,124.92,47254,1,124.92,1,N,51.4790582116667,4440.197385,-113.064173311667,-1.35,163.1,10.89,1.2,11.6611111111111,125.21,344.884108154115,2.77104636896535,-10.228202335246,9.69110967151427,pomelo_1
758.2,1.97209,93.4056,1,54.333,18.639,2018-07-04T11:26:01Z,125.82,47264,1,125.82,1,N,51.47900407,4441.134985,-113.064053121667,-1.14,164.6,10.9,1.2,11.1805555555556,126.3,352.6848548568,2.22896067812909,-9.02034934259467,9.77709084958154,pomelo_1
758.6,1.97874,93.415,1,54.4874,18.6493,2018-07-04T11:26:02Z,126.85,47274,1,126.85,1,N,51.4789516083333,4442.072585,-113.063941083333,-0.76,154,10.54,1.1,10.5138888888889,127.52,4.17387498984636,3.39968460146663,-17.5157307443782,9.09962563735185,pomelo_1
758.9,1.97017,93.4156,1,54.3508,18.5938,2018-07-04T11:26:03Z,127.18,47284,1,127.18,1,N,51.47889633,4443.011542,-113.063825758333,-0.86,167.5,9.08,3.2,9.82777777777778,127.39,338.961924262193,1.89667493045072,-6.68516689013546,8.27166691645064,pomelo_1
759.2,1.97848,93.4203,1,54.3378,18.6674,2018-07-04T11:26:04Z,126.71,47294,1,126.71,1,N,51.478849475,4443.949138,-113.063727383333,-0.82,154.8,8.25,4.4,9.38055555555556,127,346.434734109007,3.31632165913382,-16.8764794760455,7.13715051033032,pomelo_1
759.4,1.98397,93.4285,1,54.4297,18.5144,2018-07-04T11:26:05Z,125.68,47304,1,125.68,1,N,51.4788055533333,4444.886738,-113.06363305000001,-0.84,145.9,7.44,5.7,8.88888888888889,126.64,350.323763911045,4.48316841396531,-27.7780485986291,6.44007017661596,pomelo_1
759.6,1.9862899999999999,93.4326,1,54.5357,18.5002,2018-07-04T11:26:06Z,124.93,47314,1,124.93,1,N,51.4787598266667,4445.824371,-113.063530376667,-0.84,140.6,6.66,4.5,8.7,124.75,345.640356856812,5.27148391279625,-36.3797107384258,5.84283051457746,pomelo_1
759.8,1.98052,93.4279,1,54.55,18.4465,2018-07-04T11:26:07Z,124.58,47324,1,124.58,1,N,51.4787202266667,4446.76194,-113.063439206667,-0.95,147.6,6.34,3.9,8.49722222222222,124.74,337.946394673536,4.24513115013271,-25.0190248934111,5.46453156644652,pomelo_1
760,1.98296,93.4197,1,54.5202,18.5112,2018-07-04T11:26:08Z,123.81,47334,1,123.81,1,N,51.4786775966667,4447.703192,-113.063339101667,-1.11,160.9,6.84,3.4,8.29722222222222,123.71,330.959929270168,2.70988764994872,-11.9997200578013,6.01739804684771,pomelo_1
760.2,1.97971,93.4197,1,54.85,18.5488,2018-07-04T11:26:09Z,123.05,47344,1,123.05,1,N,51.4786402083333,4448.640794,-113.063249065,-1.25,151.5,6.59,2.3,8.40277777777778,123.18,334.868778895057,3.61781061497049,-19.5133909579179,5.65333861610872,pomelo_1
760.3,1.97945,93.418,1,54.7907,18.4932,2018-07-04T11:26:10Z,122.62,47354,1,122.62,1,N,51.4786030883333,4449.578393,-113.063158053333,-1.47,152.6,6.38,1.3,8.475,123.17,331.892019100445,3.75306783231672,-18.6344204639603,5.48850371975639,pomelo_1
760.4,1.98109,93.4203,1,54.4497,18.5124,2018-07-04T11:26:11Z,122.18,47364,1,122.18,1,N,51.4785617133333,4450.515997,-113.063054995,-1.86,149.4,6.38,1,8.60833333333333,122.49,332.956749378813,4.11562748077447,-22.0977056761217,5.47431655969371,pomelo_1
760.5,1.97792,93.4209,1,54.5333,18.5604,2018-07-04T11:26:11Z,121.17,47374,1,121.17,1,N,51.4785245466667,4451.459844,-113.062959405,-2.15,137.8,7.04,2.3,8.81666666666667,121.09,345.426925490421,5.53724995654265,-38.6310179397716,6.20953687270629,pomelo_1
760.6,1.9821,93.4097,1,54.5019,18.4514,2018-07-04T11:26:12Z,119.46,47384,1,119.46,1,N,51.4784839483333,4452.413075,-113.062846685,-2.36,153.4,7.62,1.6,9.44166666666667,119.45,331.865361935059,3.7835672548063,-17.9951691956277,6.56860401625579,pomelo_1
760.6,1.97337,93.3986,1,54.569,18.5884,2018-07-04T11:26:13Z,118.69,47394,1,118.69,1,N,51.4784452066667,4453.350673,-113.06273465,-2.32,161.8,9.06,0.5,10.3388888888889,118.47,330.23802132091,2.91656664903858,-11.2750082622105,8.00786033490045,pomelo_1
760.6,1.97757,93.3968,1,54.4574,18.6318,2018-07-04T11:26:14Z,118.55,47404,1,118.55,1,N,51.4784037033333,4454.288275,-113.062612746667,-2.44,157.9,8.55,-1.3,11.0555555555556,118.97,325.333662937715,4.29438561140817,-14.3993808112563,7.45581705880944,pomelo_1
760.6,1.98087,93.3728,1,54.4482,18.6484,2018-07-04T11:26:15Z,117.58,47414,1,117.58,1,N,51.4783544816667,4455.225874,-113.06246781,-2.75,164.7,11.4,0.2,11.6638888888889,117.53,342.991339729726,2.21815027388303,-8.93982580975126,10.2310013670707,pomelo_1
760.6,1.98442,93.371,1,54.5303,18.5238,2018-07-04T11:26:16Z,116.22,47424,1,116.22,1,N,51.4783100333333,4456.168459,-113.062329691667,-2.69,153.6,12.55,1.8,12.3111111111111,116.93,356.165810045014,4.00637258569564,-17.8353563785445,10.8238888648967,pomelo_1
760.6,1.98537,93.3745,1,54.7094,18.2943,2018-07-04T11:26:17Z,115.47,47434,1,115.47,1,N,51.4782609866667,4457.106061,-113.062169881667,-2.67,150.1,12.39,0.9,12.4277777777778,115.93,352.607111433695,4.63868791112327,-20.9616370916202,10.6126255066655,pomelo_1
760.7,1.97204,93.3716,1,54.6,18.4909,2018-07-04T11:26:18Z,114.14,47444,1,114.14,1,N,51.4782175033333,4458.043661,-113.062020856667,-2.37,155,11.49,2.4,12.7972222222222,114.35,335.762528423247,4.37735986177588,-16.7166666589623,9.94519304381575,pomelo_1
760.8,1.97307,93.3757,1,54.5843,18.4808,2018-07-04T11:26:19Z,113.5,47454,1,113.5,1,N,51.4781745016667,4458.981261,-113.061867115,-2.26,151.1,11.63,1.5,13.2388888888889,113.88,335.427708633215,5.19216160966644,-19.8330165920842,9.9668699934117,pomelo_1
761,1.97663,93.3587,1,54.6005,18.4691,2018-07-04T11:26:20Z,114.16,47464,1,114.16,1,N,51.4781254766667,4459.927382,-113.06169241,-1.94,162,12.11,-0.4,13.4777777777778,115.04,331.652192156075,3.73349100281517,-11.1139611965236,10.7148501472738,pomelo_1
761.3,1.97776,93.354,1,54.5281,18.418,2018-07-04T11:26:21Z,115.22,47474,1,115.22,1,N,51.4780791916667,4460.864983,-113.06153458,-1.48,157.7,12.84,-0.5,13.4333333333333,115.32,342.694418338479,3.84903996854989,-14.5591936283394,11.1910338231705,pomelo_1
761.8,1.98273,93.3593,1,54.4862,18.4915,2018-07-04T11:26:22Z,115.78,47484,1,115.78,1,N,51.4780255766667,4461.802583,-113.061359143333,-0.91,154.7,12.25,1.2,13.5638888888889,115.97,338.210215988382,4.64643035979103,-16.9563858845871,10.5948764631443,pomelo_1
762.3,1.98093,93.3475,1,54.7055,18.2114,2018-07-04T11:26:23Z,115.52,47494,1,115.52,1,N,51.47797734,4462.740184,-113.061200955,-0.29,153.7,12.55,2.7,13.5666666666667,115.91,341.713881193857,4.70285299866116,-17.7554499700029,10.8266503434412,pomelo_1
763,1.98199,93.334,1,54.5587,18.2352,2018-07-04T11:26:24Z,115.06,47504,1,115.06,1,N,51.4779298866667,4463.677786,-113.061042968333,0.04,154.8,11.68,2.5,13.4166666666667,115.39,333.840676128048,4.80680374908581,-16.8764794760455,10.1044749043222,pomelo_1
763.8,1.97717,93.3281,1,54.4774,18.4344,2018-07-04T11:26:25Z,114.89,47514,1,114.89,1,N,51.477878505,4464.60982,-113.060868191667,0.43,153,13.17,2.6,13.2722222222222,115.02,350.008829131221,4.38106663809407,-18.314794829794,11.3412584323165,pomelo_1
764.7,1.9882,93.3358,1,54.4712,18.3331,2018-07-04T11:26:26Z,115.35,47524,1,115.35,1,N,51.477832445,4465.547423,-113.060713591667,1.21,148.9,10.96,1.4,13.1166666666667,115.6,335.305849145928,5.79662231172172,-22.90918323648,9.41589928771005,pomelo_1
765.6,1.98907,93.3358,1,54.8348,18.1796,2018-07-04T11:26:26Z,115.53,47534,1,115.53,1,N,51.4777863183333,4466.485022,-113.060562096667,1.58,153.4,9.8,2.8,12.9111111111111,116.1,324.848326446159,5.59219577633619,-17.9951691956277,8.44781093954157,pomelo_1
766.5,1.99342,93.324,1,54.5831,18.3496,2018-07-04T11:26:27Z,115.43,47544,1,115.43,1,N,51.477736175,4467.422628,-113.06039656,1.08,152.5,10.32,4.2,12.4444444444444,115.51,330.787461198494,4.95120361097667,-18.7143268725019,8.875697757145,pomelo_1
767.3,2.00717,93.3105,1,54.3987,18.327,2018-07-04T11:26:28Z,115.55,47554,1,115.55,1,N,51.47769342,4468.362062,-113.060254948333,0.78,155.3,9.24,2.9,11.8972222222222,115.69,324.121482857965,4.80747483047815,-16.4769474333375,8.00384733883553,pomelo_1
768,2.04234,93.2982,1,54.3902,18.3853,2018-07-04T11:26:29Z,114.78,47564,1,114.78,1,N,51.4776474283333,4469.297353,-113.060102393333,0.48,161.4,11.34,4.8,11.7111111111111,115.19,342.376456960394,2.83652376907441,-11.5971023935842,10.0021976880685,pomelo_1
768.5,2.0267,93.2953,1,54.8382,18.4016,2018-07-04T11:26:30Z,113.61,47574,1,113.61,1,N,51.4776087833333,4470.232127,-113.059965901667,-0.22,161.8,11.51,4.2,11.5138888888889,113.42,345.380497734151,2.48351195775278,-11.2750082622105,10.1733413305413,pomelo_1
769,2.005,93.3053,1,54.7468,18.2544,2018-07-04T11:26:31Z,112.72,47584,1,112.72,1,N,51.477571405,4471.169758,-113.059829201667,-0.72,143,11.41,4.9,11.6527777777778,113.19,351.782891124189,6.34112776678892,-32.4846184487066,9.94911309725685,pomelo_1
769.3,2.01747,93.2882,1,54.8931,18.306,2018-07-04T11:26:32Z,111.26,47594,1,111.26,1,N,51.477531895,4472.104601,-113.059675458333,-1.48,155.4,10.47,4.3,11.5222222222222,111.8,334.698561744636,3.88238669221765,-16.397041024796,9.07161846091742,pomelo_1
769.5,2.01186,93.2753,1,54.9287,18.3105,2018-07-04T11:26:33Z,109.76,47604,1,109.76,1,N,51.4774986233333,4473.0392,-113.059534626667,-2.03,152.2,10.98,5.8,11.7472222222222,109.79,337.17309067153,4.17125977948325,-18.9540460981268,9.43612936803209,pomelo_1
769.6,2.00997,93.2853,1,54.6854,18.2998,2018-07-04T11:26:34Z,109.1,47614,1,109.1,1,N,51.4774666266667,4473.976768,-113.059390405,-2.4,154.8,10.84,3.3,11.7861111111111,109.77,334.59379929765,4.0106289697982,-16.8764794760455,9.37778321599765,pomelo_1
769.7,2.00009,93.2841,1,54.6232,18.2472,2018-07-04T11:26:35Z,108.36,47624,1,108.36,1,N,51.4774318916667,4474.914371,-113.059229273333,-2.57,152.5,10.87,3.4,11.9444444444444,108.64,333.062366639317,4.34717563816738,-18.7143268725019,9.34872428489982,pomelo_1
769.7,1.98257,93.2835,1,54.9339,18.2655,2018-07-04T11:26:36Z,107.75,47634,1,107.75,1,N,51.4774013666667,4475.852001,-113.059081545,-2.54,158.7,10.31,2,12.05,107.86,321.034852418755,3.94684132215066,-13.7601295429236,9.009168847201,pomelo_1
769.6,1.98043,93.2771,1,54.6728,18.4201,2018-07-04T11:26:37Z,107.68,47644,1,107.68,1,N,51.4773678366667,4476.796102,-113.058916095,-2.99,159.8,11.26,0.3,12.0861111111111,107.83,329.80854032835,3.32644520176827,-12.8811590489661,9.86735529881019,pomelo_1
769.6,1.97701,93.28,1,54.543,18.287,2018-07-04T11:26:38Z,107.47,47654,1,107.47,1,N,51.47733771,4477.733703,-113.058766571667,-3.01,156.5,11.22,-0,12.2222222222222,107.48,330.171650626087,3.84909610124089,-15.5180705308385,9.74892652292074,pomelo_1
769.5,1.98644,93.2753,1,54.4275,18.2333,2018-07-04T11:26:39Z,106.8,47664,1,106.8,1,N,51.4773076916667,4478.671304,-113.058614311667,-3.03,158.6,11.46,0.8,12.4694444444444,107.16,328.783500469678,3.69734346608621,-13.8400359514651,10.0114840741435,pomelo_1
769.4,1.9829,93.2782,1,54.4333,18.221,2018-07-04T11:26:40Z,104.37,47674,1,104.37,1,N,51.4772769683333,4479.608905,-113.058441365,-3.29,154.8,11.15,3.1,12.5805555555556,105.07,325.783526789838,4.46570043537734,-16.8764794760455,9.64596705335552,pomelo_1
769.3,1.98274,93.2882,1,54.5068,18.2045,2018-07-04T11:26:41Z,101.96,47684,1,101.96,1,N,51.4772534966667,4480.550537,-113.058281945,-3.44,150.4,11.08,3.2,12.7027777777778,102.25,323.489032727406,5.10039357029565,-20.4747505554054,9.48346336409197,pomelo_1
769.1,1.98424,93.297,1,54.6209,18.2628,2018-07-04T11:26:42Z,99.78,47694,1,99.78,1,N,51.4772317816667,4481.503281,-113.058102441667,-3.52,142.8,10.07,2.1,12.7194444444444,100.19,322.058552529834,7.21113062382935,-32.8092094728498,8.78513497804486,pomelo_1
768.9,1.96695,93.2759,1,54.5813,18.4077,2018-07-04T11:26:42Z,97,47704,1,97,1,N,51.4772163133333,4482.44088,-113.05793815,-3.75,159.8,11.26,4.1,12.7,97.53,313.95180880543,3.85465914482414,-12.8811590489661,9.86735529881019,pomelo_1
768.7,1.97387,93.2776,1,54.562,18.5647,2018-07-04T11:26:43Z,93.08,47714,1,93.08,1,N,51.4772066916667,4483.378482,-113.057774131667,-4.01,162.2,12.43,5.7,12.75,92.87,319.576284449495,2.81954063906502,-10.9529141308368,11.0094906660667,pomelo_1
768.5,1.98955,93.2782,1,54.422,18.539,2018-07-04T11:26:44Z,89.41,47724,1,89.41,1,N,51.4772038233333,4484.316082,-113.05758899,-3.77,162.1,11.95,5.6,12.8722222222222,89.2,307.877264678888,3.17877663113653,-11.0334376636802,10.5788114015347,pomelo_1
768.3,2.05504,93.2618,1,54.4152,18.5898,2018-07-04T11:26:45Z,86.2,47734,1,86.2,1,N,51.47720819,4485.260613,-113.05742352,-3.64,166.7,13.43,4.4,12.6361111111111,86.2,336.590789463622,1.64976991619749,-7.32935515288284,12.1819797482188,pomelo_1
768.1,2.21368,93.2706,1,54.357,18.5785,2018-07-04T11:26:46Z,82.65,47744,1,82.65,1,N,51.4772191016667,4486.19647,-113.057241561667,-3.51,168.5,13.83,3.8,12.7555555555556,83.1,346.328749035992,1.40638694471141,-5.8799315617012,12.6669586810718,pomelo_1
767.9,2.19959,93.2671,1,54.3251,18.5809,2018-07-04T11:26:47Z,79.26,47754,1,79.26,1,N,51.477234575,4487.124643,-113.05707809,-3.51,169.6,13.92,5.1,12.75,79.81,350.536382766356,1.23923150747138,-4.99417270042358,12.825708817555,pomelo_1
767.8,2.25901,93.2618,1,54.443600000000004,18.5456,2018-07-04T11:26:48Z,75.34,47764,1,75.34,1,N,51.477255695,4488.063753,-113.056918645,-3.28,166.3,13.69,5.8,12.3472222222222,76.12,343.287854720288,1.81910364841307,-7.6514492842565,12.3912648603267,pomelo_1
767.7,2.23481,93.2636,1,54.3782,18.4687,2018-07-04T11:26:49Z,70.98,47774,1,70.98,1,N,51.477286445,4489.007963,-113.056747811667,-2.72,164.4,12.78,5.5,12.2861111111111,72.4,316.339375527624,2.34518911586083,-9.18139640828156,11.4512816090149,pomelo_1
767.7,2.25965,93.2665,1,54.6499,18.2935,2018-07-04T11:26:50Z,67.05,47784,1,67.05,1,N,51.4773203883333,4489.945564,-113.056598266667,-2.17,160.9,13.15,4.9,12.2916666666667,67.8,316.247906589673,2.74501135460865,-11.9997200578013,11.5685357187204,pomelo_1
767.7,2.34517,93.2642,1,54.3952,18.5876,2018-07-04T11:26:51Z,63.51,47794,1,63.51,1,N,51.4773599166667,4490.883165,-113.056453105,-1.82,170.9,13.6,4.4,12.2138888888889,65.17,349.836190124032,1.24849008041506,-3.84593547852319,12.5880685237612,pomelo_1
767.8,2.39481,93.2506,1,54.4756,18.5805,2018-07-04T11:26:52Z,61.86,47804,1,61.86,1,N,51.4774077583333,4491.820767,-113.056294798333,-1.9,164.7,13.39,3.2,12.2833333333333,63.59,321.559474425825,2.2748896925631,-8.93982580975126,12.0169393250067,pomelo_1
767.7,2.32138,93.2724,1,54.4583,18.5718,2018-07-04T11:26:53Z,60.21,47814,1,60.21,1,N,51.4774533633333,4492.758366,-113.05615267,-2.36,160.9,13.04,4.8,12.4416666666667,62.45,307.341087941154,3.11629922363595,-11.9997200578013,11.4717646974991,pomelo_1
767.6,2.51958,93.2606,1,54.3989,18.7564,2018-07-04T11:26:54Z,58.77,47824,1,58.77,1,N,51.4775078766667,4493.701246,-113.055995295,-2.74,162.6,14.93,4.7,12.6666666666667,60.49,336.094800264455,2.84807477974214,-10.6308199994631,13.251517513347,pomelo_1
767.4,2.54989,93.2624,1,54.3914,18.5395,2018-07-04T11:26:55Z,58.39,47834,1,58.39,1,N,51.47755902,4494.638848,-113.055852358333,-3.02,154.1,15.55,3.1,12.8416666666667,59.87,328.048267933714,4.35540199810469,-17.4358243358365,13.4283980987178,pomelo_1
767.2,2.44357,93.2806,1,54.3136,18.8303,2018-07-04T11:26:56Z,58.08,47844,1,58.08,1,N,51.4776112466667,4495.576447,-113.055709943333,-3.4,160.1,13.82,1.4,12.5583333333333,59.78,314.576250521677,3.11104898135584,-12.6414398233413,12.120155932665,pomelo_1
766.9,2.38261,93.2818,1,54.3904,18.7533,2018-07-04T11:26:57Z,58.18,47854,1,58.18,1,N,51.4776683216667,4496.514048,-113.05555354,-3.41,161.7,13.91,-0,12.6027777777778,60.42,317.570472362565,2.962739647552,-11.3555317950539,12.2882140236612,pomelo_1
766.6,2.14865,93.2765,1,54.5886,18.7844,2018-07-04T11:26:57Z,59.32,47864,1,59.32,1,N,51.47771821,4497.450366,-113.055411918333,-3.85,163.2,14.04,-2.5,12.6388888888889,61.99,322.783425548703,2.80950773479979,-10.1476788024026,12.5008936402119,pomelo_1
766.1,2.09872,93.2853,1,54.6361,18.5772,2018-07-04T11:26:58Z,61,47874,1,61,1,N,51.4777653683333,4498.387967,-113.055266786667,-4.88,165.1,14.57,2.1,12.7027777777778,62.97,337.194578568361,2.41424868540811,-8.61773167837754,13.1037204365081,pomelo_1
765.4,2.1488,93.2747,1,54.4695,18.8146,2018-07-04T11:26:59Z,63.06,47884,1,63.06,1,N,51.477816685,4499.3256,-113.05510115,-5.34,158.6,15.11,0.1,12.9638888888889,65.03,330.845641341895,3.60597216491886,-13.8400359514651,13.2001330157337,pomelo_1
764.7,2.05642,93.2618,1,54.6361,18.5265,2018-07-04T11:27:00Z,66.53,47894,1,66.53,1,N,51.4778580866667,4500.263167,-113.0549466,-5.38,150.8,17.31,-2.4,13.05,68.94,345.448406674957,5.70528896127119,-20.0727358177089,14.8233396645305,pomelo_1
764,2.04185,93.3223,1,54.4485,18.4938,2018-07-04T11:27:01Z,68.32,47904,1,68.32,1,N,51.47789955,4501.20077,-113.054768968333,-4.98,154.5,16.26,0.6,13.3361111111111,69.94,339.621718440505,4.51498006434503,-17.1161987016702,14.0558863911308,pomelo_1
763.5,2.02817,93.2988,1,54.5259,18.6549,2018-07-04T11:27:02Z,69.13,47914,1,69.13,1,N,51.4779359383333,4502.161622,-113.054603343333,-4.21,164,15.37,1.1,13.7305555555556,71.14,335.63885210809,2.7557588925864,-9.50349053965522,13.7429113123374,pomelo_1
763,1.98991,93.2841,1,54.5292,18.5796,2018-07-04T11:27:03Z,69.76,47924,1,69.76,1,N,51.4779759783333,4503.099223,-113.054414543333,-3.67,162.2,16.71,1.3,13.9305555555556,71.81,350.18586174195,3.36599452911511,-10.9529141308368,14.8003691898612,pomelo_1
762.7,1.99011,93.2835,1,54.5778,18.5166,2018-07-04T11:27:04Z,70.09,47934,1,70.09,1,N,51.4780111533333,4504.036823,-113.054243913333,-3.28,167.9,16.26,2,13.8944444444444,72.08,2.25829685781548,2.29750237952202,-6.36307275876175,14.8444259678708,pomelo_1
762.4,2.03776,93.2876,1,54.382,18.5114,2018-07-04T11:27:05Z,69.98,47944,1,69.98,1,N,51.478046165,4504.990051,-113.05407311,-3.16,153.1,16.52,2.1,13.9611111111111,71.65,334.805627996233,4.87941787056578,-18.2348884212524,14.2297127133177,pomelo_1
762.1,2.11192,93.3311,1,54.384,18.4496,2018-07-04T11:27:06Z,69.49,47954,1,69.49,1,N,51.47808639,4505.935796,-113.053881986667,-3.02,160.6,14.67,2.9,14.1,71.36,314.324355931317,3.52701916935423,-12.2412906563315,12.8856495769429,pomelo_1
761.8,2.0172,93.3094,1,54.492,18.5512,2018-07-04T11:27:07Z,68.58,47964,1,68.58,1,N,51.4781240683333,4506.88902,-113.053710153333,-2.79,162.3,15.35,3.4,14.0111111111111,70.11,326.1613505698,3.01034765917934,-10.8723905979934,13.6029069479414,pomelo_1
761.5,1.98958,93.3111,1,54.4783,18.5187,2018-07-04T11:27:08Z,67.68,47974,1,67.68,1,N,51.4781679716667,4507.826621,-113.05352204,-2.66,170.9,16.15,1.9,13.9,69.08,14.8798529558322,1.68511771368581,-3.84593547852319,14.9483313719664,pomelo_1
761.2,2.03916,93.3141,1,54.5066,18.5878,2018-07-04T11:27:09Z,66.59,47984,1,66.59,1,N,51.47820853,4508.76422,-113.053354321667,-2.86,165.9,16.03,2.7,13.8444444444444,67.94,348.625643535355,2.38701450353744,-7.97354341563022,14.478315341697,pomelo_1
760.8,1.99268,93.2976,1,54.4674,18.5875,2018-07-04T11:27:10Z,64.79,47994,1,64.79,1,N,51.4782560466667,4509.709765,-113.053172038333,-3.49,159.3,17.59,5,13.475,66.25,356.083755001259,4.16406071266553,-13.280691091674,15.394508144594,pomelo_1
760.2,1.9787,93.3346,1,54.4132,18.6208,2018-07-04T11:27:11Z,61.65,48004,1,61.65,1,N,51.4783024816667,4510.652232,-113.053015963333,-4.41,160.3,16.21,5.5,13.133333333333301,62.98,344.287519783219,3.46281653125909,-12.4816270062581,14.2235668237653,pomelo_1
759.5,1.96689,93.3522,1,54.4582,18.6626,2018-07-04T11:27:12Z,55.01,48014,1,55.01,1,N,51.4783546816667,4511.589832,-113.05286946,-5.01,172.7,14.41,8.2,12.9527777777778,57.49,345.018167326803,1.07625332167136,-1.94007106012998,13.3165237586642,pomelo_1
758.7,1.96417,93.3434,1,54.3795,18.8945,2018-07-04T11:27:13Z,47.35,48024,1,47.35,1,N,51.4784242666667,4512.527433,-113.052723088333,-5.43,165.3,15.64,10,12.725,48.79,344.137817288911,2.67794863107362,-8.45668461269071,14.0809980574049,pomelo_1
758,1.97107,93.3352,1,54.3993,18.8444,2018-07-04T11:27:13Z,40.04,48034,1,40.04,1,N,51.4784984916667,4513.465033,-113.052607231667,-5.73,164.4,16.73,9.8,12.825,39.96,349.777475697235,3.08720512814498,-9.18139640828156,14.9906057369969,pomelo_1
757.4,1.98524,93.3129,1,54.4,18.7344,2018-07-04T11:27:14Z,30.31,48044,1,30.31,1,N,51.478592525,4514.408324,-113.052499391667,-5.13,161.9,19,11.3,12.9694444444444,31.73,344.775498785981,5.02106349885025,-11.194484729367,16.802297387090402,pomelo_1
757,1.98165,93.3393,1,54.3944,18.5814,2018-07-04T11:27:15Z,20.91,48054,1,20.91,1,N,51.47868752,4515.345926,-113.052426035,-4.51,162.9,17.75,11.3,13.1138888888889,21.2,330.485747818245,3.77788369195344,-10.3892494009328,15.7792987362989,pomelo_1
756.8,1.97486,93.3381,1,54.5921,18.5811,2018-07-04T11:27:16Z,10.05,48064,1,10.05,1,N,51.4787897966667,4516.283527,-113.052376178333,-3.16,162.8,17.92,13.4,13.1611111111111,12.74,315.614918070126,4.31612826040395,-10.4697729337763,15.9220646188693,pomelo_1
756.8,1.97321,93.3387,1,54.4102,18.6999,2018-07-04T11:27:17Z,3.06,48074,1,3.06,1,N,51.47890803,4517.221157,-113.052351383333,-1.66,171.4,17.57,10.5,13.3138888888889,3.24,344.434746602662,3.07548131116202,-3.31652869563618,16.2554597246487,pomelo_1
756.9,1.97742,93.3211,1,54.6587,18.6797,2018-07-04T11:27:18Z,356.93,48084,1,356.93,1,N,51.4790162516667,4518.163974,-113.052349598333,-0.93,170.3,20.19,8.6,13.3916666666667,357.65,339.803545507419,5.4700888825576,-4.43050797051961,18.673941068515,pomelo_1
757.2,1.97353,93.327,1,54.6876,18.5612,2018-07-04T11:27:19Z,356.27,48094,1,356.27,1,N,51.4791375366667,4519.101575,-113.05236019,-0.17,171.8,19.04,1.4,13.575,357.33,340.417068758593,4.1728185320899,-2.89300326932658,17.609229126625,pomelo_1
757.5,1.98205,93.3105,1,54.5593,18.3822,2018-07-04T11:27:20Z,356.22,48104,1,356.22,1,N,51.4792473733333,4520.039177,-113.052369913333,0.43,172,19.63,1.6,13.5111111111111,356.77,344.261177113627,4.72383583104421,-2.68124055617176,18.151673585713,pomelo_1
758,1.97752,93.3152,1,54.5243,18.3847,2018-07-04T11:27:21Z,356.67,48114,1,356.67,1,N,51.4793579816667,4520.976776,-113.052379743333,1.21,174.6,19.53,0.1,13.8138888888889,356.95,356.057152886011,4.20416755283404,0.0716747148406967,18.0176650939224,pomelo_1
758.5,1.98465,93.2935,1,54.7193,18.3463,2018-07-04T11:27:22Z,357,48124,1,357,1,N,51.4794808616667,4521.91438,-113.05238880166701,1.53,170.9,19.83,0.2,13.6611111111111,357.77,340.089710241066,4.86359840750614,-3.84593547852319,18.3545146195723,pomelo_1
759.2,1.9896,93.2876,1,54.5136,18.2001,2018-07-04T11:27:23Z,356.89,48134,1,356.89,1,N,51.479591215,4522.8577,-113.052397288333,1.7,172.9,19.14,1,13.55,357.05,349.008953311255,4.16581662679988,-1.72830834697515,17.6844621381154,pomelo_1
759.8,1.98599,93.2894,1,54.5383,18.1898,2018-07-04T11:27:24Z,356.71,48144,1,356.71,1,N,51.4797010233333,4523.795307,-113.052406765,1.79,173.4,19.29,0.2,13.6416666666667,356.62,351.893753232072,4.18438766953171,-1.1989015640882,17.8151628268171,pomelo_1
760.4,1.98102,93.2882,1,54.6066,18.2427,2018-07-04T11:27:25Z,357.84,48154,1,357.84,1,N,51.4798231816667,4524.732899,-113.05241585,1.36,174.6,18.73,-3,13.7194444444444,357.79,358.380544610792,3.5603199987326,0.0716747148406967,17.2796142964243,pomelo_1
760.9,1.97931,93.2841,1,54.4917,18.2563,2018-07-04T11:27:26Z,358.94,48164,1,358.94,1,N,51.4799335983333,4525.670499,-113.05241944,1.19,169.9,18.51,-2.7,13.7416666666667,359.51,333.637374627339,3.631431581973,-4.75260210189333,17.082764446923,pomelo_1
761.3,1.98185,93.2653,1,54.4799,18.2146,2018-07-04T11:27:27Z,359.71,48174,1,359.71,1,N,51.4800569933333,4526.641559,-113.052419308333,0.83,168.4,19.01,-1,13.8138888888889,0.43,330.169887619996,4.01725355826715,-5.96045509454467,17.4019302099387,pomelo_1
761.6,1.97643,93.2794,1,54.524,18.2524,2018-07-04T11:27:28Z,359.88,48184,1,359.88,1,N,51.4801692566667,4527.576234,-113.05241775,0.44,166,18.51,0.2,14.0138888888889,0.48,316.161030545364,3.5359779973233,-7.89301988278675,16.7271773999575,pomelo_1
761.9,1.97578,93.2794,1,54.4326,18.1726,2018-07-04T11:27:29Z,0.29,48194,1,0.29,1,N,51.4802958133333,4528.513832,-113.052415516667,0.04,167.4,17.96,-0.5,14.0833333333333,0.44,317.95708503813,2.91538429226269,-6.76569042297888,16.3523403222145,pomelo_1
762.1,1.97487,93.2559,1,54.4986,18.2212,2018-07-04T11:27:29Z,1,48204,1,1,1,N,51.48041099,4529.451434,-113.052411265,-0.13,171.1,19.49,-0.2,14.3666666666667,1.52,341.686684395638,3.85098381252309,-3.63417276536836,18.0366110814112,pomelo_1
762.3,1.97587,93.2659,1,54.4776,18.168,2018-07-04T11:27:30Z,1.3,48214,1,1.3,1,N,51.48052665,4530.389032,-113.052405975,-0.42,173,18.94,0,14.3861111111111,1.86,349.726148687675,3.17014108850375,-1.62242699039774,17.4981211556627,pomelo_1
762.5,1.98036,93.2706,1,54.4835,18.2433,2018-07-04T11:27:31Z,1.42,48224,1,1.42,1,N,51.4806547816667,4531.347212,-113.052399728333,-0.82,168.6,19.29,-0.4,14.0333333333333,1.93,333.151879385075,4.03535784647266,-5.79940802885778,17.6773595995654,pomelo_1
762.6,1.98192,93.2718,1,54.4467,18.0934,2018-07-04T11:27:32Z,1.52,48234,1,1.52,1,N,51.4807665716667,4532.284815,-113.052393553333,-1.07,166.5,18.48,0.4,13.7055555555556,2.09,322.840860909539,3.71095640815028,-7.49040221856967,16.7447529470584,pomelo_1
762.7,1.97355,93.2929,1,54.5102,18.1568,2018-07-04T11:27:33Z,1.74,48244,1,1.74,1,N,51.480887555,4533.222414,-113.052386883333,-1.04,168.1,16.75,-0.6,13.3361111111111,2.33,318.176250138473,2.59902514821441,-6.20202569307492,15.3082756589597,pomelo_1
762.7,1.98029,93.2935,1,54.5427,18.3038,2018-07-04T11:27:34Z,2.11,48254,1,2.11,1,N,51.4809942983333,4534.160014,-113.052380281667,-0.89,167.8,16.33,-1.6,13.1166666666667,2.61,315.517646584268,2.45931409788675,-6.44359629160516,14.9002976218673,pomelo_1
762.8,1.97666,93.2923,1,54.8203,17.9813,2018-07-04T11:27:35Z,4.47,48264,1,4.47,1,N,51.4811095666667,4535.116629,-113.052369435,-0.98,163.6,16.09,-5.5,12.4805555555556,4.45,308.721799700952,2.95866521012068,-9.82558467102888,14.3563650716362,pomelo_1
762.8,1.98071,93.3135,1,54.8787,18.2351,2018-07-04T11:27:36Z,11.01,48274,1,11.01,1,N,51.481205295,4536.085482,-113.052348166667,-1.57,167.5,14.33,-11,11.6111111111111,11.1,322.379911605713,2.04932946445308,-6.68516689013546,13.0542937128566,pomelo_1
762.8,1.9755,93.3187,1,54.7618,18.1094,2018-07-04T11:27:37Z,19.7,48284,1,19.7,1,N,51.4813028166667,4537.023083,-113.052301105,-2.26,165,14.77,-9.9,11.1888888888889,21.58,328.958829940268,3.0671597844351,-8.69825521122101,13.2765408199384,pomelo_1
762.8,1.97377,93.3334,1,54.6758,18.0958,2018-07-04T11:27:38Z,30.65,48294,1,30.65,1,N,51.4813810533333,4537.960684,-113.05223558,-1.66,163.9,12.55,-6.9,10.7055555555556,32.9,309.634198034989,2.31602473388723,-9.58401407249863,11.2155174160417,pomelo_1
762.9,1.97459,93.3428,1,54.8313,18.0735,2018-07-04T11:27:39Z,44.3,48304,1,44.3,1,N,51.48145574,4538.905114,-113.052137551667,-1.33,161.5,12.83,-8.4,10.8138888888889,44.98,321.014473324039,2.40535418233795,-11.5165788607408,11.3223177000985,pomelo_1
762.9,1.97418,93.3469,1,54.8284,18.2033,2018-07-04T11:27:40Z,57.96,48314,1,57.96,1,N,51.481508605,4539.873968,-113.052025275,-1.39,158.2,12.21,-10.2,10.9277777777778,59.71,316.599907836522,2.99911706536445,-14.1596615856315,10.6556739996803,pomelo_1
762.9,1.98056,93.3252,1,54.8066,18.166,2018-07-04T11:27:41Z,72.21,48324,1,72.21,1,N,51.4815474166667,4540.811569,-113.05187827500001,-0.95,158.6,13.79,-11.2,11.325,73.58,349.001774804271,3.17482726626181,-13.8400359514651,12.0469777820628,pomelo_1
762.9,1.98321,93.3258,1,54.8313,18.0423,2018-07-04T11:27:42Z,82.64,48334,1,82.64,1,N,51.4815650616667,4541.74917,-113.051732096667,-1.68,154.8,13.75,-10.4,11.675,83.8,348.151283851059,3.70100863487388,-16.8764794760455,11.8952508505505,pomelo_1
762.7,1.98112,93.3323,1,54.6744,18.0252,2018-07-04T11:27:43Z,90.63,48344,1,90.63,1,N,51.4815682716667,4542.68677,-113.051578211667,-2.3,155.7,13.26,-7.4,12.1777777777778,91.59,342.227421272256,3.5870302616379,-16.1573217991711,11.4978224271538,pomelo_1
762.5,1.98243,93.3246,1,54.471,18.0057,2018-07-04T11:27:44Z,92.27,48354,1,92.27,1,N,51.4815627533333,4543.655338,-113.051400551667,-2.73,161.8,13.76,-0.5,12.5888888888889,92.95,347.619771025551,2.61223814657267,-11.2750082622105,12.1620483673543,pomelo_1
762.3,1.98452,93.3047,1,54.3757,17.95,2018-07-04T11:27:45Z,91.54,48364,1,91.54,1,N,51.4815572566667,4544.592939,-113.05123405,-2.81,156.8,15.38,3.9,12.9972222222222,92.27,0.0647147111220984,3.6909294405855,-15.2783513052137,13.373811530918,pomelo_1
762.1,1.98456,93.3305,1,54.3754,17.9793,2018-07-04T11:27:46Z,90.58,48374,1,90.58,1,N,51.4815533416667,4545.53054,-113.051044128333,-2.82,157.9,14.6,4.4,13.383333333333301,91.45,343.268303161823,3.5291598973571,-14.3993808112563,12.7315706501307,pomelo_1
761.9,1.98607,93.3346,1,54.4647,18.0807,2018-07-04T11:27:46Z,89.82,48384,1,89.82,1,N,51.4815513866667,4546.46814,-113.050868591667,-2.84,157.7,13.03,5.1,13.6361111111111,90.5,318.595206658234,4.01082930515969,-14.5591936283394,11.3566332333264,pomelo_1
761.7,1.97947,93.3164,1,54.4131,17.943,2018-07-04T11:27:47Z,90.13,48394,1,90.13,1,N,51.4815503833333,4547.413458,-113.050670205,-2.83,160.7,14.97,3.3,13.8083333333333,90.6,341.953754775427,3.03614867012861,-12.1607671234881,13.1559848535983,pomelo_1
761.5,1.98541,93.324,1,54.3525,18.0321,2018-07-04T11:27:48Z,90.03,48404,1,90.03,1,N,51.48154852,4548.366686,-113.050490433333,-2.48,157.8,15.67,4.1,13.9,90.38,349.154937144815,3.56461541616535,-14.4792872197978,13.6611147283278,pomelo_1
761.3,1.97608,93.3305,1,54.4673,17.9993,2018-07-04T11:27:49Z,89.69,48414,1,89.69,1,N,51.48154712,4549.304286,-113.050290711667,-2.67,162.8,14.88,4.5,13.8583333333333,90.54,341.520961820293,2.74492235928836,-10.4697729337763,13.2210000853111,pomelo_1
761.2,1.98042,93.3381,1,54.3337,17.9186,2018-07-04T11:27:50Z,89.25,48424,1,89.25,1,N,51.4815467683333,4550.241918,-113.05011105,-2.64,152.4,14.14,4.6,13.9222222222222,90.02,328.814775836031,4.75994978555373,-18.7942332810435,12.1579896267115,pomelo_1
761,1.98149,93.3546,1,54.4157,17.8082,2018-07-04T11:27:51Z,88.85,48434,1,88.85,1,N,51.48154723,4551.179488,-113.049930361667,-2.77,153,13.55,4.2,13.8694444444444,89.64,322.969012436052,4.76145924374365,-18.314794829794,11.668492920113,pomelo_1
760.6,1.98051,93.3399,1,54.4169,17.9577,2018-07-04T11:27:52Z,88.97,48444,1,88.97,1,N,51.4815485233333,4552.125662,-113.049732981667,-3.03,160.5,14.48,2.4,13.4888888888889,89.56,338.423609437051,3.04542947018766,-12.321814189175,12.712164957766,pomelo_1
760.4,1.97874,93.3528,1,54.3932,17.855,2018-07-04T11:27:53Z,89.62,48454,1,89.62,1,N,51.4815488433333,4553.063263,-113.049560003333,-3.05,156.8,13.98,1.8,13.1416666666667,90.12,336.53268388532,3.60688625806896,-15.2783513052137,12.1564294669853,pomelo_1
760.1,1.97767,93.351,1,54.384,17.9285,2018-07-04T11:27:54Z,89.28,48464,1,89.28,1,N,51.4815487633333,4554.000866,-113.049376918333,-3.37,160.3,14.88,2.7,12.3861111111111,90.21,6.1365086346953,3.04467878239094,-12.4816270062581,13.0565499282929,pomelo_1
759.8,1.98193,93.3739,1,54.3427,17.838,2018-07-04T11:27:55Z,88.52,48474,1,88.52,1,N,51.4815495483333,4554.9385,-113.049223663333,-3.44,152.6,13.12,3.8,11.4777777777778,89.14,346.679958223828,3.8117212299876,-18.6344204639603,11.2867035741699,pomelo_1
759.5,1.97905,93.3886,1,54.3556,17.8561,2018-07-04T11:27:56Z,87.05,48484,1,87.05,1,N,51.4815519633333,4555.88463,-113.04908114,-3.34,150.8,11.87,4.2,10.6805555555556,87.85,339.763295561352,3.80991489890082,-20.0727358177089,10.1648204400911,pomelo_1
759.2,1.9756,93.3974,1,54.4991,17.7476,2018-07-04T11:27:57Z,83.48,48494,1,83.48,1,N,51.4815579416667,4556.822232,-113.048933516667,-3.18,153.2,11.86,8.6,9.9,83.3,350.026167038969,3.15855955460109,-18.1549820127108,10.2183652826563,pomelo_1
759,1.97742,93.408,1,54.3749,17.8472,2018-07-04T11:27:58Z,76.27,48504,1,76.27,1,N,51.4815717866667,4557.759833,-113.048811641667,-2.74,148.3,11.16,10.1,9.30555555555556,75.13,338.217796677074,3.73933178360559,-23.8829563089097,9.60211195835139,pomelo_1
758.8,1.97262,93.3986,1,54.5018,17.9559,2018-07-04T11:27:59Z,64.25,48514,1,64.25,1,N,51.4815963683333,4558.697433,-113.048700045,-2.52,161.7,10.85,11.6,9.09444444444444,64.35,343.293906571395,1.92707940967883,-11.3555317950539,9.58498362018143,pomelo_1
758.5,1.98299,93.388,1,54.4199,18.088,2018-07-04T11:28:00Z,49.65,48524,1,49.65,1,N,51.4816405283333,4559.623519,-113.048591595,-2.99,157.9,12.83,13.1,8.99166666666666,48.77,354.570848862783,3.22479487149598,-14.3993808112563,11.1880857151491,pomelo_1
758.3,1.97804,93.3775,1,54.543,17.9492,2018-07-04T11:28:01Z,35.5,48534,1,35.5,1,N,51.4816961783333,4560.56112,-113.048512435,-3.37,155.7,13.29,12.4,9.51666666666667,35.41,331.43081333249,3.54917637810112,-16.1573217991711,11.523835600066,pomelo_1
758,1.9812,93.3739,1,54.5861,18.1191,2018-07-04T11:28:02Z,21.4,48544,1,21.4,1,N,51.4817748283333,4561.498722,-113.048445238333,-3.48,160.9,13.72,13.8,10.2527777777778,22.96,320.5810913984,3.19391467750828,-11.9997200578013,12.0699855559577,pomelo_1
757.8,1.98458,93.3675,1,54.4295,18.1557,2018-07-04T11:28:02Z,13.75,48554,1,13.75,1,N,51.4818593183333,4562.436321,-113.048403723333,-3.49,162.6,14.18,8.8,11.4138888888889,14.4,305.068891852994,2.63138094589407,-10.6308199994631,12.5858351198433,pomelo_1
757.5,1.98557,93.361,1,54.5567,18.1823,2018-07-04T11:28:03Z,10.64,48564,1,10.64,1,N,51.481953865,4563.373959,-113.048370001667,-2.94,163.2,15.34,4.9,12.3944444444444,11.63,302.514958602037,2.82388708825326,-10.1476788024026,13.6583837920834,pomelo_1
757.2,1.98204,93.3534,1,54.6496,18.0797,2018-07-04T11:28:04Z,10.09,48574,1,10.09,1,N,51.4820687716667,4564.316267,-113.048333895,-2.13,167,16.39,2.3,13.4805555555556,11.26,311.682231342371,2.48021100008454,-7.08778455435254,14.8908460571643,pomelo_1
757.2,1.98308,93.3164,1,54.6263,18.2338,2018-07-04T11:28:05Z,9.99,48584,1,9.99,1,N,51.482178675,4565.253866,-113.048299771667,-1.53,164.2,19.51,2.3,14.0666666666667,11.11,325.516225542928,4.43890592379123,-9.34244347396839,17.463089723967,pomelo_1
757.3,1.98436,93.3246,1,54.5799,18.227,2018-07-04T11:28:06Z,9.6,48594,1,9.6,1,N,51.4822918083333,4566.191467,-113.048265206667,-0.5,165.5,18.37,2.4,14.3972222222222,10.52,316.789284218978,3.28873740912002,-8.29563754700388,16.5564781376662,pomelo_1
757.5,1.97575,93.324,1,54.4673,18.2452,2018-07-04T11:28:07Z,8.86,48604,1,8.86,1,N,51.4824199016667,4567.129067,-113.048226533333,0.18,167.2,18.35,5.5,14.5583333333333,10.46,318.651194855979,3.14849379843979,-6.92673748866571,16.6894805773632,pomelo_1
757.9,1.97944,93.3293,1,54.4928,18.322,2018-07-04T11:28:08Z,7.75,48614,1,7.75,1,N,51.482536985,4568.062153,-113.048195798333,0.64,170.6,18.32,5.3,14.6972222222222,8.59,334.66637779778,2.65072838683883,-4.16357954825537,16.9613852056319,pomelo_1
758.3,1.97973,93.297,1,54.4471,18.2047,2018-07-04T11:28:09Z,6.43,48624,1,6.43,1,N,51.4826554466667,4568.994143,-113.04816916,1.02,167.8,20.04,4.7,14.7333333333333,7.37,332.72400510618,4.1334746523273,-6.44359629160516,18.2854846504728,pomelo_1
759,1.98404,93.3188,1,54.4213,18.1831,2018-07-04T11:28:10Z,5,48634,1,5,1,N,51.48278711,4569.931744,-113.048143906667,1.69,163.9,17.12,4.7,14.6916666666667,5.65,283.287332873505,2.74258891896488,-9.58401407249863,15.2995743555883,pomelo_1
759.7,1.97908,93.3105,1,54.4445,18.4095,2018-07-04T11:28:11Z,2.45,48644,1,2.45,1,N,51.4829047916667,4570.869345,-113.048128218333,2.45,170.4,18.48,5,14.5166666666667,3.37,331.359443161809,2.96329826643706,-4.34998443767626,17.1016863986294,pomelo_1
760.7,1.97897,93.2959,1,54.4431,18.3648,2018-07-04T11:28:12Z,358.65,48654,1,358.65,1,N,51.483034135,4571.806945,-113.04812227333299,3.15,174,17.5,7.7,14.2611111111111,0.2,342.628706353242,1.97340994235298,-0.563613424623725,16.1534356181052,pomelo_1
761.7,1.97865,93.2653,1,54.3153,18.454,2018-07-04T11:28:13Z,354.91,48664,1,354.91,1,N,51.483148245,4572.749251,-113.048130478333,3.5,168.9,18.78,7,13.9305555555556,355.5,325.583373891847,3.70151061336481,-5.55783743032754,17.2379853084934,pomelo_1
762.8,1.97991,93.2647,1,54.5424,18.468,2018-07-04T11:28:14Z,350.35,48674,1,350.35,1,N,51.4832589166667,4573.686853,-113.048150538333,3.75,172,17.78,6.7,13.6277777777778,351.48,329.997976192818,2.98416047780808,-2.68124055617176,16.4409962482923,pomelo_1
764,1.97796,93.2665,1,54.3647,18.4605,2018-07-04T11:28:15Z,346.44,48684,1,346.44,1,N,51.48337679,4574.624453,-113.048186803333,4.02,167.4,17.56,6.5,13.0388888888889,347,311.123985662505,3.47870729504394,-6.76569042297888,15.9881456602498,pomelo_1
765.2,1.98646,93.243,1,54.4331,18.4111,2018-07-04T11:28:16Z,342.4,48694,1,342.4,1,N,51.4834796416667,4575.562055,-113.048231891667,4.39,172.8,17.96,6.8,13.258333333333301,342.93,331.289733433874,3.39298972444061,-1.83418970355257,16.5956678977358,pomelo_1
766.4,1.97631,93.2266,1,54.6142,18.4494,2018-07-04T11:28:17Z,337.66,48704,1,337.66,1,N,51.48358056,4576.493566,-113.048289683333,4.43,169.2,17.97,6.6,13.2777777777778,337.96,310.894047551292,3.553438408552,-5.31626683179729,16.521363764117,pomelo_1
767.8,1.9813,93.2054,1,54.6606,18.3398,2018-07-04T11:28:17Z,333.12,48714,1,333.12,1,N,51.4836895716667,4577.446659,-113.048368308333,4.35,174.5,19.17,7.8,13.1638888888889,333.38,332.229666232886,4.52389666042194,-0.0342066417367164,17.6871069871502,pomelo_1
768.9,1.97506,93.2054,1,54.4483,18.4295,2018-07-04T11:28:18Z,328.67,48724,1,328.67,1,N,51.4837842916667,4578.384259,-113.048451965,4.08,172.1,18.73,6.6,13.4138888888889,329.34,315.146148568657,3.99831613698692,-2.57535919959435,17.3179165557361,pomelo_1
770.2,1.98237,93.2031,1,54.4337,18.1297,2018-07-04T11:28:19Z,325.85,48734,1,325.85,1,N,51.4838865733333,4579.32189,-113.048555973333,4.16,175.5,17.69,6.2,13.5361111111111,325.8,332.104487552387,2.78502789561382,1.02460692403728,16.307164224151,pomelo_1
771.3,1.97506,93.1949,1,54.662,18.2715,2018-07-04T11:28:20Z,323.48,48744,1,323.48,1,N,51.4839762216667,4580.259461,-113.048658281667,4.24,176.7,17.49,6.3,13.6222222222222,323.04,340.355998723515,2.58217321088391,2.29518320296608,16.1057137399406,pomelo_1
772.6,1.97153,93.1737,1,54.6119,18.4598,2018-07-04T11:28:21Z,321.76,48754,1,321.76,1,N,51.48407357,4581.227832,-113.048779393333,4.37,170.8,17.44,2.6,13.7888888888889,321.83,295.768089895837,2.57718374507221,-3.9518168351006,16.1437796017785,pomelo_1
