altitude,ch4_moleratio,ch4_pressure,ch4_qc,ch4_rssi,ch4_temp,computer_time,estimated_heading,frame,gps_fix,heading,heading_available,hpr_type,latitude,log_time,longitude,pitch,rmys_wdir_cf,rmys_wspd2D_cf,roll,spd_over_grnd,true_track,true_wdir,true_wspd,wdir_cf_corrected,wspd_cf_corrected,system_id
772.6,1.97153,93.1737,1,54.6119,18.4598,2018-07-04T11:28:21Z,321.76,48754,1,321.76,1,N,51.48407357,4581.227832,-113.0487794,4.37,170.8,17.44,2.6,13.78888889,321.83,295.7680899,2.577183745,-3.951816835,16.1437796,pomelo_1
771.3,1.97506,93.1949,1,54.662,18.2715,2018-07-04T11:28:20Z,323.48,48744,1,323.48,1,N,51.48397622,4580.259461,-113.0486583,4.24,176.7,17.49,6.3,13.62222222,323.04,340.3559987,2.582173211,2.295183203,16.10571374,pomelo_1
770.2,1.98237,93.2031,1,54.4337,18.1297,2018-07-04T11:28:19Z,325.85,48734,1,325.85,1,N,51.48388657,4579.32189,-113.048556,4.16,175.5,17.69,6.2,13.53611111,325.8,332.1044876,2.785027896,1.024606924,16.30716422,pomelo_1
768.9,1.97506,93.2054,1,54.4483,18.4295,2018-07-04T11:28:18Z,328.67,48724,1,328.67,1,N,51.48378429,4578.384259,-113.048452,4.08,172.1,18.73,6.6,13.41388889,329.34,315.1461486,3.998316137,-2.5753592,17.31791656,pomelo_1
766.4,1.97631,93.2266,1,54.6142,18.4494,2018-07-04T11:28:17Z,337.66,48704,1,337.66,1,N,51.48358056,4576.493566,-113.0482897,4.43,169.2,17.97,6.6,13.27777778,337.96,310.8940476,3.553438409,-5.316266832,16.52136376,pomelo_1
767.8,1.9813,93.2054,1,54.6606,18.3398,2018-07-04T11:28:17Z,333.12,48714,1,333.12,1,N,51.48368957,4577.446659,-113.0483683,4.35,174.5,19.17,7.8,13.16388889,333.38,332.2296662,4.52389666,-0.034206642,17.68710699,pomelo_1
765.2,1.98646,93.243,1,54.4331,18.4111,2018-07-04T11:28:16Z,342.4,48694,1,342.4,1,N,51.48347964,4575.562055,-113.0482319,4.39,172.8,17.96,6.8,13.25833333,342.93,331.2897334,3.392989724,-1.834189704,16.5956679,pomelo_1
764,1.97796,93.2665,1,54.3647,18.4605,2018-07-04T11:28:15Z,346.44,48684,1,346.44,1,N,51.48337679,4574.624453,-113.0481868,4.02,167.4,17.56,6.5,13.03888889,347,311.1239857,3.478707295,-6.765690423,15.98814566,pomelo_1
762.8,1.97991,93.2647,1,54.5424,18.468,2018-07-04T11:28:14Z,350.35,48674,1,350.35,1,N,51.48325892,4573.686853,-113.0481505,3.75,172,17.78,6.7,13.62777778,351.48,329.9979762,2.984160478,-2.681240556,16.44099625,pomelo_1
761.7,1.97865,93.2653,1,54.3153,18.454,2018-07-04T11:28:13Z,354.91,48664,1,354.91,1,N,51.48314825,4572.749251,-113.0481305,3.5,168.9,18.78,7,13.93055556,355.5,325.5833739,3.701510613,-5.55783743,17.23798531,pomelo_1
760.7,1.97897,93.2959,1,54.4431,18.3648,2018-07-04T11:28:12Z,358.65,48654,1,358.65,1,N,51.48303414,4571.806945,-113.0481223,3.15,174,17.5,7.7,14.26111111,0.2,342.6287064,1.973409942,-0.563613425,16.15343562,pomelo_1
759.7,1.97908,93.3105,1,54.4445,18.4095,2018-07-04T11:28:11Z,2.45,48644,1,2.45,1,N,51.48290479,4570.869345,-113.0481282,2.45,170.4,18.48,5,14.51666667,3.37,331.3594432,2.963298266,-4.349984438,17.1016864,pomelo_1
759,1.98404,93.3188,1,54.4213,18.1831,2018-07-04T11:28:10Z,5,48634,1,5,1,N,51.48278711,4569.931744,-113.0481439,1.69,163.9,17.12,4.7,14.69166667,5.65,283.2873329,2.742588919,-9.584014072,15.29957436,pomelo_1
758.3,1.97973,93.297,1,54.4471,18.2047,2018-07-04T11:28:09Z,6.43,48624,1,6.43,1,N,51.48265545,4568.994143,-113.0481692,1.02,167.8,20.04,4.7,14.73333333,7.37,332.7240051,4.133474652,-6.443596292,18.28548465,pomelo_1
757.9,1.97944,93.3293,1,54.4928,18.322,2018-07-04T11:28:08Z,7.75,48614,1,7.75,1,N,51.48253699,4568.062153,-113.0481958,0.64,170.6,18.32,5.3,14.69722222,8.59,334.6663778,2.650728387,-4.163579548,16.96138521,pomelo_1
757.5,1.97575,93.324,1,54.4673,18.2452,2018-07-04T11:28:07Z,8.86,48604,1,8.86,1,N,51.4824199,4567.129067,-113.0482265,0.18,167.2,18.35,5.5,14.55833333,10.46,318.6511949,3.148493798,-6.926737489,16.68948058,pomelo_1
757.3,1.98436,93.3246,1,54.5799,18.227,2018-07-04T11:28:06Z,9.6,48594,1,9.6,1,N,51.48229181,4566.191467,-113.0482652,-0.5,165.5,18.37,2.4,14.39722222,10.52,316.7892842,3.288737409,-8.295637547,16.55647814,pomelo_1
757.2,1.98308,93.3164,1,54.6263,18.2338,2018-07-04T11:28:05Z,9.99,48584,1,9.99,1,N,51.48217868,4565.253866,-113.0482998,-1.53,164.2,19.51,2.3,14.06666667,11.11,325.5162255,4.438905924,-9.342443474,17.46308972,pomelo_1
757.2,1.98204,93.3534,1,54.6496,18.0797,2018-07-04T11:28:04Z,10.09,48574,1,10.09,1,N,51.48206877,4564.316267,-113.0483339,-2.13,167,16.39,2.3,13.48055556,11.26,311.6822313,2.480211,-7.087784554,14.89084606,pomelo_1
757.5,1.98557,93.361,1,54.5567,18.1823,2018-07-04T11:28:03Z,10.64,48564,1,10.64,1,N,51.48195387,4563.373959,-113.04837,-2.94,163.2,15.34,4.9,12.39444444,11.63,302.5149586,2.823887088,-10.1476788,13.65838379,pomelo_1
758,1.9812,93.3739,1,54.5861,18.1191,2018-07-04T11:28:02Z,21.4,48544,1,21.4,1,N,51.48177483,4561.498722,-113.0484452,-3.48,160.9,13.72,13.8,10.25277778,22.96,320.5810914,3.193914678,-11.99972006,12.06998556,pomelo_1
757.8,1.98458,93.3675,1,54.4295,18.1557,2018-07-04T11:28:02Z,13.75,48554,1,13.75,1,N,51.48185932,4562.436321,-113.0484037,-3.49,162.6,14.18,8.8,11.41388889,14.4,305.0688919,2.631380946,-10.63082,12.58583512,pomelo_1
758.3,1.97804,93.3775,1,54.543,17.9492,2018-07-04T11:28:01Z,35.5,48534,1,35.5,1,N,51.48169618,4560.56112,-113.0485124,-3.37,155.7,13.29,12.4,9.516666667,35.41,331.4308133,3.549176378,-16.1573218,11.5238356,pomelo_1
758.5,1.98299,93.388,1,54.4199,18.088,2018-07-04T11:28:00Z,49.65,48524,1,49.65,1,N,51.48164053,4559.623519,-113.0485916,-2.99,157.9,12.83,13.1,8.991666667,48.77,354.5708489,3.224794871,-14.39938081,11.18808572,pomelo_1
758.8,1.97262,93.3986,1,54.5018,17.9559,2018-07-04T11:27:59Z,64.25,48514,1,64.25,1,N,51.48159637,4558.697433,-113.0487,-2.52,161.7,10.85,11.6,9.094444444,64.35,343.2939066,1.92707941,-11.3555318,9.58498362,pomelo_1
759,1.97742,93.408,1,54.3749,17.8472,2018-07-04T11:27:58Z,76.27,48504,1,76.27,1,N,51.48157179,4557.759833,-113.0488116,-2.74,148.3,11.16,10.1,9.305555556,75.13,338.2177967,3.739331784,-23.88295631,9.602111958,pomelo_1
759.2,1.9756,93.3974,1,54.4991,17.7476,2018-07-04T11:27:57Z,83.48,48494,1,83.48,1,N,51.48155794,4556.822232,-113.0489335,-3.18,153.2,11.86,8.6,9.9,83.3,350.026167,3.158559555,-18.15498201,10.21836528,pomelo_1
759.5,1.97905,93.3886,1,54.3556,17.8561,2018-07-04T11:27:56Z,87.05,48484,1,87.05,1,N,51.48155196,4555.88463,-113.0490811,-3.34,150.8,11.87,4.2,10.68055556,87.85,339.7632956,3.809914899,-20.07273582,10.16482044,pomelo_1
759.8,1.98193,93.3739,1,54.3427,17.838,2018-07-04T11:27:55Z,88.52,48474,1,88.52,1,N,51.48154955,4554.9385,-113.0492237,-3.44,152.6,13.12,3.8,11.47777778,89.14,346.6799582,3.81172123,-18.63442046,11.28670357,pomelo_1
760.1,1.97767,93.351,1,54.384,17.9285,2018-07-04T11:27:54Z,89.28,48464,1,89.28,1,N,51.48154876,4554.000866,-113.0493769,-3.37,160.3,14.88,2.7,12.38611111,90.21,6.136508635,3.044678782,-12.48162701,13.05654993,pomelo_1
760.4,1.97874,93.3528,1,54.3932,17.855,2018-07-04T11:27:53Z,89.62,48454,1,89.62,1,N,51.48154884,4553.063263,-113.04956,-3.05,156.8,13.98,1.8,13.14166667,90.12,336.5326839,3.606886258,-15.27835131,12.15642947,pomelo_1
760.6,1.98051,93.3399,1,54.4169,17.9577,2018-07-04T11:27:52Z,88.97,48444,1,88.97,1,N,51.48154852,4552.125662,-113.049733,-3.03,160.5,14.48,2.4,13.48888889,89.56,338.4236094,3.04542947,-12.32181419,12.71216496,pomelo_1
761,1.98149,93.3546,1,54.4157,17.8082,2018-07-04T11:27:51Z,88.85,48434,1,88.85,1,N,51.48154723,4551.179488,-113.0499304,-2.77,153,13.55,4.2,13.86944444,89.64,322.9690124,4.761459244,-18.31479483,11.66849292,pomelo_1
761.2,1.98042,93.3381,1,54.3337,17.9186,2018-07-04T11:27:50Z,89.25,48424,1,89.25,1,N,51.48154677,4550.241918,-113.0501111,-2.64,152.4,14.14,4.6,13.92222222,90.02,328.8147758,4.759949786,-18.79423328,12.15798963,pomelo_1
761.3,1.97608,93.3305,1,54.4673,17.9993,2018-07-04T11:27:49Z,89.69,48414,1,89.69,1,N,51.48154712,4549.304286,-113.0502907,-2.67,162.8,14.88,4.5,13.85833333,90.54,341.5209618,2.744922359,-10.46977293,13.22100009,pomelo_1
761.5,1.98541,93.324,1,54.3525,18.0321,2018-07-04T11:27:48Z,90.03,48404,1,90.03,1,N,51.48154852,4548.366686,-113.0504904,-2.48,157.8,15.67,4.1,13.9,90.38,349.1549371,3.564615416,-14.47928722,13.66111473,pomelo_1
761.7,1.97947,93.3164,1,54.4131,17.943,2018-07-04T11:27:47Z,90.13,48394,1,90.13,1,N,51.48155038,4547.413458,-113.0506702,-2.83,160.7,14.97,3.3,13.80833333,90.6,341.9537548,3.03614867,-12.16076712,13.15598485,pomelo_1
762.1,1.98456,93.3305,1,54.3754,17.9793,2018-07-04T11:27:46Z,90.58,48374,1,90.58,1,N,51.48155334,4545.53054,-113.0510441,-2.82,157.9,14.6,4.4,13.38333333,91.45,343.2683032,3.529159897,-14.39938081,12.73157065,pomelo_1
761.9,1.98607,93.3346,1,54.4647,18.0807,2018-07-04T11:27:46Z,89.82,48384,1,89.82,1,N,51.48155139,4546.46814,-113.0508686,-2.84,157.7,13.03,5.1,13.63611111,90.5,318.5952067,4.010829305,-14.55919363,11.35663323,pomelo_1
762.3,1.98452,93.3047,1,54.3757,17.95,2018-07-04T11:27:45Z,91.54,48364,1,91.54,1,N,51.48155726,4544.592939,-113.0512341,-2.81,156.8,15.38,3.9,12.99722222,92.27,0.064714711,3.690929441,-15.27835131,13.37381153,pomelo_1
762.5,1.98243,93.3246,1,54.471,18.0057,2018-07-04T11:27:44Z,92.27,48354,1,92.27,1,N,51.48156275,4543.655338,-113.0514006,-2.73,161.8,13.76,-0.5,12.58888889,92.95,347.619771,2.612238147,-11.27500826,12.16204837,pomelo_1
762.7,1.98112,93.3323,1,54.6744,18.0252,2018-07-04T11:27:43Z,90.63,48344,1,90.63,1,N,51.48156827,4542.68677,-113.0515782,-2.3,155.7,13.26,-7.4,12.17777778,91.59,342.2274213,3.587030262,-16.1573218,11.49782243,pomelo_1
762.9,1.98321,93.3258,1,54.8313,18.0423,2018-07-04T11:27:42Z,82.64,48334,1,82.64,1,N,51.48156506,4541.74917,-113.0517321,-1.68,154.8,13.75,-10.4,11.675,83.8,348.1512839,3.701008635,-16.87647948,11.89525085,pomelo_1
762.9,1.98056,93.3252,1,54.8066,18.166,2018-07-04T11:27:41Z,72.21,48324,1,72.21,1,N,51.48154742,4540.811569,-113.0518783,-0.95,158.6,13.79,-11.2,11.325,73.58,349.0017748,3.174827266,-13.84003595,12.04697778,pomelo_1
762.9,1.97418,93.3469,1,54.8284,18.2033,2018-07-04T11:27:40Z,57.96,48314,1,57.96,1,N,51.48150861,4539.873968,-113.0520253,-1.39,158.2,12.21,-10.2,10.92777778,59.71,316.5999078,2.999117065,-14.15966159,10.655674,pomelo_1
762.9,1.97459,93.3428,1,54.8313,18.0735,2018-07-04T11:27:39Z,44.3,48304,1,44.3,1,N,51.48145574,4538.905114,-113.0521376,-1.33,161.5,12.83,-8.4,10.81388889,44.98,321.0144733,2.405354182,-11.51657886,11.3223177,pomelo_1
762.8,1.97377,93.3334,1,54.6758,18.0958,2018-07-04T11:27:38Z,30.65,48294,1,30.65,1,N,51.48138105,4537.960684,-113.0522356,-1.66,163.9,12.55,-6.9,10.70555556,32.9,309.634198,2.316024734,-9.584014072,11.21551742,pomelo_1
762.8,1.9755,93.3187,1,54.7618,18.1094,2018-07-04T11:27:37Z,19.7,48284,1,19.7,1,N,51.48130282,4537.023083,-113.0523011,-2.26,165,14.77,-9.9,11.18888889,21.58,328.9588299,3.067159784,-8.698255211,13.27654082,pomelo_1
762.8,1.98071,93.3135,1,54.8787,18.2351,2018-07-04T11:27:36Z,11.01,48274,1,11.01,1,N,51.4812053,4536.085482,-113.0523482,-1.57,167.5,14.33,-11,11.61111111,11.1,322.3799116,2.049329464,-6.68516689,13.05429371,pomelo_1
762.8,1.97666,93.2923,1,54.8203,17.9813,2018-07-04T11:27:35Z,4.47,48264,1,4.47,1,N,51.48110957,4535.116629,-113.0523694,-0.98,163.6,16.09,-5.5,12.48055556,4.45,308.7217997,2.95866521,-9.825584671,14.35636507,pomelo_1
762.7,1.98029,93.2935,1,54.5427,18.3038,2018-07-04T11:27:34Z,2.11,48254,1,2.11,1,N,51.4809943,4534.160014,-113.0523803,-0.89,167.8,16.33,-1.6,13.11666667,2.61,315.5176466,2.459314098,-6.443596292,14.90029762,pomelo_1
762.7,1.97355,93.2929,1,54.5102,18.1568,2018-07-04T11:27:33Z,1.74,48244,1,1.74,1,N,51.48088756,4533.222414,-113.0523869,-1.04,168.1,16.75,-0.6,13.33611111,2.33,318.1762501,2.599025148,-6.202025693,15.30827566,pomelo_1
762.6,1.98192,93.2718,1,54.4467,18.0934,2018-07-04T11:27:32Z,1.52,48234,1,1.52,1,N,51.48076657,4532.284815,-113.0523936,-1.07,166.5,18.48,0.4,13.70555556,2.09,322.8408609,3.710956408,-7.490402219,16.74475295,pomelo_1
762.5,1.98036,93.2706,1,54.4835,18.2433,2018-07-04T11:27:31Z,1.42,48224,1,1.42,1,N,51.48065478,4531.347212,-113.0523997,-0.82,168.6,19.29,-0.4,14.03333333,1.93,333.1518794,4.035357846,-5.799408029,17.6773596,pomelo_1
762.3,1.97587,93.2659,1,54.4776,18.168,2018-07-04T11:27:30Z,1.3,48214,1,1.3,1,N,51.48052665,4530.389032,-113.052406,-0.42,173,18.94,0,14.38611111,1.86,349.7261487,3.170141089,-1.62242699,17.49812116,pomelo_1
761.9,1.97578,93.2794,1,54.4326,18.1726,2018-07-04T11:27:29Z,0.29,48194,1,0.29,1,N,51.48029581,4528.513832,-113.0524155,0.04,167.4,17.96,-0.5,14.08333333,0.44,317.957085,2.915384292,-6.765690423,16.35234032,pomelo_1
762.1,1.97487,93.2559,1,54.4986,18.2212,2018-07-04T11:27:29Z,1,48204,1,1,1,N,51.48041099,4529.451434,-113.0524113,-0.13,171.1,19.49,-0.2,14.36666667,1.52,341.6866844,3.850983813,-3.634172765,18.03661108,pomelo_1
761.6,1.97643,93.2794,1,54.524,18.2524,2018-07-04T11:27:28Z,359.88,48184,1,359.88,1,N,51.48016926,4527.576234,-113.0524178,0.44,166,18.51,0.2,14.01388889,0.48,316.1610305,3.535977997,-7.893019883,16.7271774,pomelo_1
761.3,1.98185,93.2653,1,54.4799,18.2146,2018-07-04T11:27:27Z,359.71,48174,1,359.71,1,N,51.48005699,4526.641559,-113.0524193,0.83,168.4,19.01,-1,13.81388889,0.43,330.1698876,4.017253558,-5.960455095,17.40193021,pomelo_1
760.9,1.97931,93.2841,1,54.4917,18.2563,2018-07-04T11:27:26Z,358.94,48164,1,358.94,1,N,51.4799336,4525.670499,-113.0524194,1.19,169.9,18.51,-2.7,13.74166667,359.51,333.6373746,3.631431582,-4.752602102,17.08276445,pomelo_1
760.4,1.98102,93.2882,1,54.6066,18.2427,2018-07-04T11:27:25Z,357.84,48154,1,357.84,1,N,51.47982318,4524.732899,-113.0524159,1.36,174.6,18.73,-3,13.71944444,357.79,358.3805446,3.560319999,0.071674715,17.2796143,pomelo_1
759.8,1.98599,93.2894,1,54.5383,18.1898,2018-07-04T11:27:24Z,356.71,48144,1,356.71,1,N,51.47970102,4523.795307,-113.0524068,1.79,173.4,19.29,0.2,13.64166667,356.62,351.8937532,4.18438767,-1.198901564,17.81516283,pomelo_1
759.2,1.9896,93.2876,1,54.5136,18.2001,2018-07-04T11:27:23Z,356.89,48134,1,356.89,1,N,51.47959122,4522.8577,-113.0523973,1.7,172.9,19.14,1,13.55,357.05,349.0089533,4.165816627,-1.728308347,17.68446214,pomelo_1
758.5,1.98465,93.2935,1,54.7193,18.3463,2018-07-04T11:27:22Z,357,48124,1,357,1,N,51.47948086,4521.91438,-113.0523888,1.53,170.9,19.83,0.2,13.66111111,357.77,340.0897102,4.863598408,-3.845935479,18.35451462,pomelo_1
758,1.97752,93.3152,1,54.5243,18.3847,2018-07-04T11:27:21Z,356.67,48114,1,356.67,1,N,51.47935798,4520.976776,-113.0523797,1.21,174.6,19.53,0.1,13.81388889,356.95,356.0571529,4.204167553,0.071674715,18.01766509,pomelo_1
757.5,1.98205,93.3105,1,54.5593,18.3822,2018-07-04T11:27:20Z,356.22,48104,1,356.22,1,N,51.47924737,4520.039177,-113.0523699,0.43,172,19.63,1.6,13.51111111,356.77,344.2611771,4.723835831,-2.681240556,18.15167359,pomelo_1
757.2,1.97353,93.327,1,54.6876,18.5612,2018-07-04T11:27:19Z,356.27,48094,1,356.27,1,N,51.47913754,4519.101575,-113.0523602,-0.17,171.8,19.04,1.4,13.575,357.33,340.4170688,4.172818532,-2.893003269,17.60922913,pomelo_1
756.9,1.97742,93.3211,1,54.6587,18.6797,2018-07-04T11:27:18Z,356.93,48084,1,356.93,1,N,51.47901625,4518.163974,-113.0523496,-0.93,170.3,20.19,8.6,13.39166667,357.65,339.8035455,5.470088883,-4.430507971,18.67394107,pomelo_1
756.8,1.97321,93.3387,1,54.4102,18.6999,2018-07-04T11:27:17Z,3.06,48074,1,3.06,1,N,51.47890803,4517.221157,-113.0523514,-1.66,171.4,17.57,10.5,13.31388889,3.24,344.4347466,3.075481311,-3.316528696,16.25545972,pomelo_1
756.8,1.97486,93.3381,1,54.5921,18.5811,2018-07-04T11:27:16Z,10.05,48064,1,10.05,1,N,51.4787898,4516.283527,-113.0523762,-3.16,162.8,17.92,13.4,13.16111111,12.74,315.6149181,4.31612826,-10.46977293,15.92206462,pomelo_1
757,1.98165,93.3393,1,54.3944,18.5814,2018-07-04T11:27:15Z,20.91,48054,1,20.91,1,N,51.47868752,4515.345926,-113.052426,-4.51,162.9,17.75,11.3,13.11388889,21.2,330.4857478,3.777883692,-10.3892494,15.77929874,pomelo_1
757.4,1.98524,93.3129,1,54.4,18.7344,2018-07-04T11:27:14Z,30.31,48044,1,30.31,1,N,51.47859253,4514.408324,-113.0524994,-5.13,161.9,19,11.3,12.96944444,31.73,344.7754988,5.021063499,-11.19448473,16.80229739,pomelo_1
758.7,1.96417,93.3434,1,54.3795,18.8945,2018-07-04T11:27:13Z,47.35,48024,1,47.35,1,N,51.47842427,4512.527433,-113.0527231,-5.43,165.3,15.64,10,12.725,48.79,344.1378173,2.677948631,-8.456684613,14.08099806,pomelo_1
758,1.97107,93.3352,1,54.3993,18.8444,2018-07-04T11:27:13Z,40.04,48034,1,40.04,1,N,51.47849849,4513.465033,-113.0526072,-5.73,164.4,16.73,9.8,12.825,39.96,349.7774757,3.087205128,-9.181396408,14.99060574,pomelo_1
759.5,1.96689,93.3522,1,54.4582,18.6626,2018-07-04T11:27:12Z,55.01,48014,1,55.01,1,N,51.47835468,4511.589832,-113.0528695,-5.01,172.7,14.41,8.2,12.95277778,57.49,345.0181673,1.076253322,-1.94007106,13.31652376,pomelo_1
760.2,1.9787,93.3346,1,54.4132,18.6208,2018-07-04T11:27:11Z,61.65,48004,1,61.65,1,N,51.47830248,4510.652232,-113.053016,-4.41,160.3,16.21,5.5,13.13333333,62.98,344.2875198,3.462816531,-12.48162701,14.22356682,pomelo_1
760.8,1.99268,93.2976,1,54.4674,18.5875,2018-07-04T11:27:10Z,64.79,47994,1,64.79,1,N,51.47825605,4509.709765,-113.053172,-3.49,159.3,17.59,5,13.475,66.25,356.083755,4.164060713,-13.28069109,15.39450814,pomelo_1
761.2,2.03916,93.3141,1,54.5066,18.5878,2018-07-04T11:27:09Z,66.59,47984,1,66.59,1,N,51.47820853,4508.76422,-113.0533543,-2.86,165.9,16.03,2.7,13.84444444,67.94,348.6256435,2.387014504,-7.973543416,14.47831534,pomelo_1
761.5,1.98958,93.3111,1,54.4783,18.5187,2018-07-04T11:27:08Z,67.68,47974,1,67.68,1,N,51.47816797,4507.826621,-113.053522,-2.66,170.9,16.15,1.9,13.9,69.08,14.87985296,1.685117714,-3.845935479,14.94833137,pomelo_1
761.8,2.0172,93.3094,1,54.492,18.5512,2018-07-04T11:27:07Z,68.58,47964,1,68.58,1,N,51.47812407,4506.88902,-113.0537102,-2.79,162.3,15.35,3.4,14.01111111,70.11,326.1613506,3.010347659,-10.8723906,13.60290695,pomelo_1
762.1,2.11192,93.3311,1,54.384,18.4496,2018-07-04T11:27:06Z,69.49,47954,1,69.49,1,N,51.47808639,4505.935796,-113.053882,-3.02,160.6,14.67,2.9,14.1,71.36,314.3243559,3.527019169,-12.24129066,12.88564958,pomelo_1
762.4,2.03776,93.2876,1,54.382,18.5114,2018-07-04T11:27:05Z,69.98,47944,1,69.98,1,N,51.47804617,4504.990051,-113.0540731,-3.16,153.1,16.52,2.1,13.96111111,71.65,334.805628,4.879417871,-18.23488842,14.22971271,pomelo_1
762.7,1.99011,93.2835,1,54.5778,18.5166,2018-07-04T11:27:04Z,70.09,47934,1,70.09,1,N,51.47801115,4504.036823,-113.0542439,-3.28,167.9,16.26,2,13.89444444,72.08,2.258296858,2.29750238,-6.363072759,14.84442597,pomelo_1
763,1.98991,93.2841,1,54.5292,18.5796,2018-07-04T11:27:03Z,69.76,47924,1,69.76,1,N,51.47797598,4503.099223,-113.0544145,-3.67,162.2,16.71,1.3,13.93055556,71.81,350.1858617,3.365994529,-10.95291413,14.80036919,pomelo_1
763.5,2.02817,93.2988,1,54.5259,18.6549,2018-07-04T11:27:02Z,69.13,47914,1,69.13,1,N,51.47793594,4502.161622,-113.0546033,-4.21,164,15.37,1.1,13.73055556,71.14,335.6388521,2.755758893,-9.50349054,13.74291131,pomelo_1
764,2.04185,93.3223,1,54.4485,18.4938,2018-07-04T11:27:01Z,68.32,47904,1,68.32,1,N,51.47789955,4501.20077,-113.054769,-4.98,154.5,16.26,0.6,13.33611111,69.94,339.6217184,4.514980064,-17.1161987,14.05588639,pomelo_1
764.7,2.05642,93.2618,1,54.6361,18.5265,2018-07-04T11:27:00Z,66.53,47894,1,66.53,1,N,51.47785809,4500.263167,-113.0549466,-5.38,150.8,17.31,-2.4,13.05,68.94,345.4484067,5.705288961,-20.07273582,14.82333966,pomelo_1
765.4,2.1488,93.2747,1,54.4695,18.8146,2018-07-04T11:26:59Z,63.06,47884,1,63.06,1,N,51.47781669,4499.3256,-113.0551012,-5.34,158.6,15.11,0.1,12.96388889,65.03,330.8456413,3.605972165,-13.84003595,13.20013302,pomelo_1
766.1,2.09872,93.2853,1,54.6361,18.5772,2018-07-04T11:26:58Z,61,47874,1,61,1,N,51.47776537,4498.387967,-113.0552668,-4.88,165.1,14.57,2.1,12.70277778,62.97,337.1945786,2.414248685,-8.617731678,13.10372044,pomelo_1
766.9,2.38261,93.2818,1,54.3904,18.7533,2018-07-04T11:26:57Z,58.18,47854,1,58.18,1,N,51.47766832,4496.514048,-113.0555535,-3.41,161.7,13.91,0,12.60277778,60.42,317.5704724,2.962739648,-11.3555318,12.28821402,pomelo_1
766.6,2.14865,93.2765,1,54.5886,18.7844,2018-07-04T11:26:57Z,59.32,47864,1,59.32,1,N,51.47771821,4497.450366,-113.0554119,-3.85,163.2,14.04,-2.5,12.63888889,61.99,322.7834255,2.809507735,-10.1476788,12.50089364,pomelo_1
767.2,2.44357,93.2806,1,54.3136,18.8303,2018-07-04T11:26:56Z,58.08,47844,1,58.08,1,N,51.47761125,4495.576447,-113.0557099,-3.4,160.1,13.82,1.4,12.55833333,59.78,314.5762505,3.111048981,-12.64143982,12.12015593,pomelo_1
767.4,2.54989,93.2624,1,54.3914,18.5395,2018-07-04T11:26:55Z,58.39,47834,1,58.39,1,N,51.47755902,4494.638848,-113.0558524,-3.02,154.1,15.55,3.1,12.84166667,59.87,328.0482679,4.355401998,-17.43582434,13.4283981,pomelo_1
767.6,2.51958,93.2606,1,54.3989,18.7564,2018-07-04T11:26:54Z,58.77,47824,1,58.77,1,N,51.47750788,4493.701246,-113.0559953,-2.74,162.6,14.93,4.7,12.66666667,60.49,336.0948003,2.84807478,-10.63082,13.25151751,pomelo_1
767.7,2.32138,93.2724,1,54.4583,18.5718,2018-07-04T11:26:53Z,60.21,47814,1,60.21,1,N,51.47745336,4492.758366,-113.0561527,-2.36,160.9,13.04,4.8,12.44166667,62.45,307.3410879,3.116299224,-11.99972006,11.4717647,pomelo_1
767.8,2.39481,93.2506,1,54.4756,18.5805,2018-07-04T11:26:52Z,61.86,47804,1,61.86,1,N,51.47740776,4491.820767,-113.0562948,-1.9,164.7,13.39,3.2,12.28333333,63.59,321.5594744,2.274889693,-8.93982581,12.01693933,pomelo_1
767.7,2.34517,93.2642,1,54.3952,18.5876,2018-07-04T11:26:51Z,63.51,47794,1,63.51,1,N,51.47735992,4490.883165,-113.0564531,-1.82,170.9,13.6,4.4,12.21388889,65.17,349.8361901,1.24849008,-3.845935479,12.58806852,pomelo_1
767.7,2.25965,93.2665,1,54.6499,18.2935,2018-07-04T11:26:50Z,67.05,47784,1,67.05,1,N,51.47732039,4489.945564,-113.0565983,-2.17,160.9,13.15,4.9,12.29166667,67.8,316.2479066,2.745011355,-11.99972006,11.56853572,pomelo_1
767.7,2.23481,93.2636,1,54.3782,18.4687,2018-07-04T11:26:49Z,70.98,47774,1,70.98,1,N,51.47728645,4489.007963,-113.0567478,-2.72,164.4,12.78,5.5,12.28611111,72.4,316.3393755,2.345189116,-9.181396408,11.45128161,pomelo_1
767.8,2.25901,93.2618,1,54.4436,18.5456,2018-07-04T11:26:48Z,75.34,47764,1,75.34,1,N,51.4772557,4488.063753,-113.0569186,-3.28,166.3,13.69,5.8,12.34722222,76.12,343.2878547,1.819103648,-7.651449284,12.39126486,pomelo_1
767.9,2.19959,93.2671,1,54.3251,18.5809,2018-07-04T11:26:47Z,79.26,47754,1,79.26,1,N,51.47723458,4487.124643,-113.0570781,-3.51,169.6,13.92,5.1,12.75,79.81,350.5363828,1.239231507,-4.9941727,12.82570882,pomelo_1
768.1,2.21368,93.2706,1,54.357,18.5785,2018-07-04T11:26:46Z,82.65,47744,1,82.65,1,N,51.4772191,4486.19647,-113.0572416,-3.51,168.5,13.83,3.8,12.75555556,83.1,346.328749,1.406386945,-5.879931562,12.66695868,pomelo_1
768.3,2.05504,93.2618,1,54.4152,18.5898,2018-07-04T11:26:45Z,86.2,47734,1,86.2,1,N,51.47720819,4485.260613,-113.0574235,-3.64,166.7,13.43,4.4,12.63611111,86.2,336.5907895,1.649769916,-7.329355153,12.18197975,pomelo_1
768.5,1.98955,93.2782,1,54.422,18.539,2018-07-04T11:26:44Z,89.41,47724,1,89.41,1,N,51.47720382,4484.316082,-113.057589,-3.77,162.1,11.95,5.6,12.87222222,89.2,307.8772647,3.178776631,-11.03343766,10.5788114,pomelo_1
768.7,1.97387,93.2776,1,54.562,18.5647,2018-07-04T11:26:43Z,93.08,47714,1,93.08,1,N,51.47720669,4483.378482,-113.0577741,-4.01,162.2,12.43,5.7,12.75,92.87,319.5762844,2.819540639,-10.95291413,11.00949067,pomelo_1
769.1,1.98424,93.297,1,54.6209,18.2628,2018-07-04T11:26:42Z,99.78,47694,1,99.78,1,N,51.47723178,4481.503281,-113.0581024,-3.52,142.8,10.07,2.1,12.71944444,100.19,322.0585525,7.211130624,-32.80920947,8.785134978,pomelo_1
768.9,1.96695,93.2759,1,54.5813,18.4077,2018-07-04T11:26:42Z,97,47704,1,97,1,N,51.47721631,4482.44088,-113.0579382,-3.75,159.8,11.26,4.1,12.7,97.53,313.9518088,3.854659145,-12.88115905,9.867355299,pomelo_1
769.3,1.98274,93.2882,1,54.5068,18.2045,2018-07-04T11:26:41Z,101.96,47684,1,101.96,1,N,51.4772535,4480.550537,-113.0582819,-3.44,150.4,11.08,3.2,12.70277778,102.25,323.4890327,5.10039357,-20.47475056,9.483463364,pomelo_1
769.4,1.9829,93.2782,1,54.4333,18.221,2018-07-04T11:26:40Z,104.37,47674,1,104.37,1,N,51.47727697,4479.608905,-113.0584414,-3.29,154.8,11.15,3.1,12.58055556,105.07,325.7835268,4.465700435,-16.87647948,9.645967053,pomelo_1
769.5,1.98644,93.2753,1,54.4275,18.2333,2018-07-04T11:26:39Z,106.8,47664,1,106.8,1,N,51.47730769,4478.671304,-113.0586143,-3.03,158.6,11.46,0.8,12.46944444,107.16,328.7835005,3.697343466,-13.84003595,10.01148407,pomelo_1
769.6,1.97701,93.28,1,54.543,18.287,2018-07-04T11:26:38Z,107.47,47654,1,107.47,1,N,51.47733771,4477.733703,-113.0587666,-3.01,156.5,11.22,0,12.22222222,107.48,330.1716506,3.849096101,-15.51807053,9.748926523,pomelo_1
769.6,1.98043,93.2771,1,54.6728,18.4201,2018-07-04T11:26:37Z,107.68,47644,1,107.68,1,N,51.47736784,4476.796102,-113.0589161,-2.99,159.8,11.26,0.3,12.08611111,107.83,329.8085403,3.326445202,-12.88115905,9.867355299,pomelo_1
769.7,1.98257,93.2835,1,54.9339,18.2655,2018-07-04T11:26:36Z,107.75,47634,1,107.75,1,N,51.47740137,4475.852001,-113.0590815,-2.54,158.7,10.31,2,12.05,107.86,321.0348524,3.946841322,-13.76012954,9.009168847,pomelo_1
769.7,2.00009,93.2841,1,54.6232,18.2472,2018-07-04T11:26:35Z,108.36,47624,1,108.36,1,N,51.47743189,4474.914371,-113.0592293,-2.57,152.5,10.87,3.4,11.94444444,108.64,333.0623666,4.347175638,-18.71432687,9.348724285,pomelo_1
769.6,2.00997,93.2853,1,54.6854,18.2998,2018-07-04T11:26:34Z,109.1,47614,1,109.1,1,N,51.47746663,4473.976768,-113.0593904,-2.4,154.8,10.84,3.3,11.78611111,109.77,334.5937993,4.01062897,-16.87647948,9.377783216,pomelo_1
769.5,2.01186,93.2753,1,54.9287,18.3105,2018-07-04T11:26:33Z,109.76,47604,1,109.76,1,N,51.47749862,4473.0392,-113.0595346,-2.03,152.2,10.98,5.8,11.74722222,109.79,337.1730907,4.171259779,-18.9540461,9.436129368,pomelo_1
769.3,2.01747,93.2882,1,54.8931,18.306,2018-07-04T11:26:32Z,111.26,47594,1,111.26,1,N,51.4775319,4472.104601,-113.0596755,-1.48,155.4,10.47,4.3,11.52222222,111.8,334.6985617,3.882386692,-16.39704102,9.071618461,pomelo_1
769,2.005,93.3053,1,54.7468,18.2544,2018-07-04T11:26:31Z,112.72,47584,1,112.72,1,N,51.47757141,4471.169758,-113.0598292,-0.72,143,11.41,4.9,11.65277778,113.19,351.7828911,6.341127767,-32.48461845,9.949113097,pomelo_1
768.5,2.0267,93.2953,1,54.8382,18.4016,2018-07-04T11:26:30Z,113.61,47574,1,113.61,1,N,51.47760878,4470.232127,-113.0599659,-0.22,161.8,11.51,4.2,11.51388889,113.42,345.3804977,2.483511958,-11.27500826,10.17334133,pomelo_1
768,2.04234,93.2982,1,54.3902,18.3853,2018-07-04T11:26:29Z,114.78,47564,1,114.78,1,N,51.47764743,4469.297353,-113.0601024,0.48,161.4,11.34,4.8,11.71111111,115.19,342.376457,2.836523769,-11.59710239,10.00219769,pomelo_1
767.3,2.00717,93.3105,1,54.3987,18.327,2018-07-04T11:26:28Z,115.55,47554,1,115.55,1,N,51.47769342,4468.362062,-113.0602549,0.78,155.3,9.24,2.9,11.89722222,115.69,324.1214829,4.80747483,-16.47694743,8.003847339,pomelo_1
766.5,1.99342,93.324,1,54.5831,18.3496,2018-07-04T11:26:27Z,115.43,47544,1,115.43,1,N,51.47773618,4467.422628,-113.0603966,1.08,152.5,10.32,4.2,12.44444444,115.51,330.7874612,4.951203611,-18.71432687,8.875697757,pomelo_1
764.7,1.9882,93.3358,1,54.4712,18.3331,2018-07-04T11:26:26Z,115.35,47524,1,115.35,1,N,51.47783245,4465.547423,-113.0607136,1.21,148.9,10.96,1.4,13.11666667,115.6,335.3058491,5.796622312,-22.90918324,9.415899288,pomelo_1
765.6,1.98907,93.3358,1,54.8348,18.1796,2018-07-04T11:26:26Z,115.53,47534,1,115.53,1,N,51.47778632,4466.485022,-113.0605621,1.58,153.4,9.8,2.8,12.91111111,116.1,324.8483264,5.592195776,-17.9951692,8.44781094,pomelo_1
763.8,1.97717,93.3281,1,54.4774,18.4344,2018-07-04T11:26:25Z,114.89,47514,1,114.89,1,N,51.47787851,4464.60982,-113.0608682,0.43,153,13.17,2.6,13.27222222,115.02,350.0088291,4.381066638,-18.31479483,11.34125843,pomelo_1
763,1.98199,93.334,1,54.5587,18.2352,2018-07-04T11:26:24Z,115.06,47504,1,115.06,1,N,51.47792989,4463.677786,-113.061043,0.04,154.8,11.68,2.5,13.41666667,115.39,333.8406761,4.806803749,-16.87647948,10.1044749,pomelo_1
762.3,1.98093,93.3475,1,54.7055,18.2114,2018-07-04T11:26:23Z,115.52,47494,1,115.52,1,N,51.47797734,4462.740184,-113.061201,-0.29,153.7,12.55,2.7,13.56666667,115.91,341.7138812,4.702852999,-17.75544997,10.82665034,pomelo_1
761.8,1.98273,93.3593,1,54.4862,18.4915,2018-07-04T11:26:22Z,115.78,47484,1,115.78,1,N,51.47802558,4461.802583,-113.0613591,-0.91,154.7,12.25,1.2,13.56388889,115.97,338.210216,4.64643036,-16.95638588,10.59487646,pomelo_1
761.3,1.97776,93.354,1,54.5281,18.418,2018-07-04T11:26:21Z,115.22,47474,1,115.22,1,N,51.47807919,4460.864983,-113.0615346,-1.48,157.7,12.84,-0.5,13.43333333,115.32,342.6944183,3.849039969,-14.55919363,11.19103382,pomelo_1
761,1.97663,93.3587,1,54.6005,18.4691,2018-07-04T11:26:20Z,114.16,47464,1,114.16,1,N,51.47812548,4459.927382,-113.0616924,-1.94,162,12.11,-0.4,13.47777778,115.04,331.6521922,3.733491003,-11.1139612,10.71485015,pomelo_1
760.8,1.97307,93.3757,1,54.5843,18.4808,2018-07-04T11:26:19Z,113.5,47454,1,113.5,1,N,51.4781745,4458.981261,-113.0618671,-2.26,151.1,11.63,1.5,13.23888889,113.88,335.4277086,5.19216161,-19.83301659,9.966869993,pomelo_1
760.7,1.97204,93.3716,1,54.6,18.4909,2018-07-04T11:26:18Z,114.14,47444,1,114.14,1,N,51.4782175,4458.043661,-113.0620209,-2.37,155,11.49,2.4,12.79722222,114.35,335.7625284,4.377359862,-16.71666666,9.945193044,pomelo_1
760.6,1.98537,93.3745,1,54.7094,18.2943,2018-07-04T11:26:17Z,115.47,47434,1,115.47,1,N,51.47826099,4457.106061,-113.0621699,-2.67,150.1,12.39,0.9,12.42777778,115.93,352.6071114,4.638687911,-20.96163709,10.61262551,pomelo_1
760.6,1.98442,93.371,1,54.5303,18.5238,2018-07-04T11:26:16Z,116.22,47424,1,116.22,1,N,51.47831003,4456.168459,-113.0623297,-2.69,153.6,12.55,1.8,12.31111111,116.93,356.16581,4.006372586,-17.83535638,10.82388886,pomelo_1
760.6,1.98087,93.3728,1,54.4482,18.6484,2018-07-04T11:26:15Z,117.58,47414,1,117.58,1,N,51.47835448,4455.225874,-113.0624678,-2.75,164.7,11.4,0.2,11.66388889,117.53,342.9913397,2.218150274,-8.93982581,10.23100137,pomelo_1
760.6,1.97757,93.3968,1,54.4574,18.6318,2018-07-04T11:26:14Z,118.55,47404,1,118.55,1,N,51.4784037,4454.288275,-113.0626127,-2.44,157.9,8.55,-1.3,11.05555556,118.97,325.3336629,4.294385611,-14.39938081,7.455817059,pomelo_1
760.6,1.97337,93.3986,1,54.569,18.5884,2018-07-04T11:26:13Z,118.69,47394,1,118.69,1,N,51.47844521,4453.350673,-113.0627347,-2.32,161.8,9.06,0.5,10.33888889,118.47,330.2380213,2.916566649,-11.27500826,8.007860335,pomelo_1
760.6,1.9821,93.4097,1,54.5019,18.4514,2018-07-04T11:26:12Z,119.46,47384,1,119.46,1,N,51.47848395,4452.413075,-113.0628467,-2.36,153.4,7.62,1.6,9.441666667,119.45,331.8653619,3.783567255,-17.9951692,6.568604016,pomelo_1
760.4,1.98109,93.4203,1,54.4497,18.5124,2018-07-04T11:26:11Z,122.18,47364,1,122.18,1,N,51.47856171,4450.515997,-113.063055,-1.86,149.4,6.38,1,8.608333333,122.49,332.9567494,4.115627481,-22.09770568,5.47431656,pomelo_1
760.5,1.97792,93.4209,1,54.5333,18.5604,2018-07-04T11:26:11Z,121.17,47374,1,121.17,1,N,51.47852455,4451.459844,-113.0629594,-2.15,137.8,7.04,2.3,8.816666667,121.09,345.4269255,5.537249957,-38.63101794,6.209536873,pomelo_1
760.3,1.97945,93.418,1,54.7907,18.4932,2018-07-04T11:26:10Z,122.62,47354,1,122.62,1,N,51.47860309,4449.578393,-113.0631581,-1.47,152.6,6.38,1.3,8.475,123.17,331.8920191,3.753067832,-18.63442046,5.48850372,pomelo_1
760.2,1.97971,93.4197,1,54.85,18.5488,2018-07-04T11:26:09Z,123.05,47344,1,123.05,1,N,51.47864021,4448.640794,-113.0632491,-1.25,151.5,6.59,2.3,8.402777778,123.18,334.8687789,3.617810615,-19.51339096,5.653338616,pomelo_1
760,1.98296,93.4197,1,54.5202,18.5112,2018-07-04T11:26:08Z,123.81,47334,1,123.81,1,N,51.4786776,4447.703192,-113.0633391,-1.11,160.9,6.84,3.4,8.297222222,123.71,330.9599293,2.70988765,-11.99972006,6.017398047,pomelo_1
759.8,1.98052,93.4279,1,54.55,18.4465,2018-07-04T11:26:07Z,124.58,47324,1,124.58,1,N,51.47872023,4446.76194,-113.0634392,-0.95,147.6,6.34,3.9,8.497222222,124.74,337.9463947,4.24513115,-25.01902489,5.464531566,pomelo_1
759.6,1.98629,93.4326,1,54.5357,18.5002,2018-07-04T11:26:06Z,124.93,47314,1,124.93,1,N,51.47875983,4445.824371,-113.0635304,-0.84,140.6,6.66,4.5,8.7,124.75,345.6403569,5.271483913,-36.37971074,5.842830515,pomelo_1
759.4,1.98397,93.4285,1,54.4297,18.5144,2018-07-04T11:26:05Z,125.68,47304,1,125.68,1,N,51.47880555,4444.886738,-113.0636331,-0.84,145.9,7.44,5.7,8.888888889,126.64,350.3237639,4.483168414,-27.7780486,6.440070177,pomelo_1
759.2,1.97848,93.4203,1,54.3378,18.6674,2018-07-04T11:26:04Z,126.71,47294,1,126.71,1,N,51.47884948,4443.949138,-113.0637274,-0.82,154.8,8.25,4.4,9.380555556,127,346.4347341,3.316321659,-16.87647948,7.13715051,pomelo_1
758.9,1.97017,93.4156,1,54.3508,18.5938,2018-07-04T11:26:03Z,127.18,47284,1,127.18,1,N,51.47889633,4443.011542,-113.0638258,-0.86,167.5,9.08,3.2,9.827777778,127.39,338.9619243,1.89667493,-6.68516689,8.271666916,pomelo_1
758.6,1.97874,93.415,1,54.4874,18.6493,2018-07-04T11:26:02Z,126.85,47274,1,126.85,1,N,51.47895161,4442.072585,-113.0639411,-0.76,154,10.54,1.1,10.51388889,127.52,4.17387499,3.399684601,-17.51573074,9.099625637,pomelo_1
758.2,1.97209,93.4056,1,54.333,18.639,2018-07-04T11:26:01Z,125.82,47264,1,125.82,1,N,51.47900407,4441.134985,-113.0640531,-1.14,164.6,10.9,1.2,11.18055556,126.3,352.6848549,2.228960678,-9.020349343,9.77709085,pomelo_1
757.9,1.97838,93.3992,1,54.4316,18.6624,2018-07-04T11:26:00Z,124.92,47254,1,124.92,1,N,51.47905821,4440.197385,-113.0641733,-1.35,163.1,10.89,1.2,11.66111111,125.21,344.8841082,2.771046369,-10.22820234,9.691109672,pomelo_1
757.7,1.97184,93.4174,1,54.3986,18.6968,2018-07-04T11:25:59Z,124.74,47244,1,124.74,1,N,51.47911844,4439.259786,-113.0643104,-1.74,144.4,10.97,1.7,11.63888889,125.14,359.8477548,5.946683341,-30.21248128,9.531620836,pomelo_1
757.5,1.97445,93.4074,1,54.3682,18.6845,2018-07-04T11:25:58Z,124.67,47234,1,124.67,1,N,51.47917212,4438.325182,-113.0644322,-2,155.6,11.74,0.2,11.47777778,125.1,4.472663589,3.392162699,-16.23722821,10.17721186,pomelo_1
757.4,1.97697,93.3986,1,54.4749,18.5158,2018-07-04T11:25:57Z,124.5,47224,1,124.5,1,N,51.47923097,4437.387581,-113.0645661,-2.25,158.2,9.61,-1.7,11.55,124.96,336.6041156,4.034760537,-14.15966159,8.386652509,pomelo_1
757.3,1.97955,93.4133,1,54.4892,18.5679,2018-07-04T11:25:56Z,122.97,47204,1,122.97,1,N,51.47933633,4435.512382,-113.0648162,-2.92,153.4,11.28,-0.5,11.675,123.5,355.024793,3.946204888,-17.9951692,9.723602796,pomelo_1
757.3,1.98025,93.4092,1,54.4965,18.3887,2018-07-04T11:25:56Z,123.63,47214,1,123.63,1,N,51.47928394,4436.449981,-113.0646901,-2.29,156.2,10.84,-1.8,11.66388889,123.99,348.8851496,3.701770482,-15.75778976,9.411493737,pomelo_1
757.4,1.97494,93.4138,1,54.4275,18.6868,2018-07-04T11:25:55Z,122.73,47194,1,122.73,1,N,51.47939409,4434.568753,-113.0649586,-3.67,154.1,11.69,1.7,11.83055556,123,357.2073227,3.785056721,-17.43582434,10.09504654,pomelo_1
757.7,1.96737,93.3869,1,54.3791,18.6372,2018-07-04T11:25:54Z,122.47,47184,1,122.47,1,N,51.47944656,4433.631153,-113.065087,-4.37,157,12.77,0.7,11.98333333,123.1,9.932311115,3.279926546,-15.11853849,11.10997767,pomelo_1
758.1,1.97886,93.3933,1,54.4542,18.5552,2018-07-04T11:25:53Z,122.03,47174,1,122.03,1,N,51.47950539,4432.69355,-113.0652324,-4.28,158.7,12.57,-1.1,12.06388889,122.35,4.533427785,3.021300882,-13.76012954,10.9840206,pomelo_1
758.4,1.97826,93.3839,1,54.4344,18.5376,2018-07-04T11:25:52Z,121.62,47164,1,121.62,1,N,51.47955769,4431.755951,-113.0653654,-4.18,164.3,13.05,0.2,12.15555556,121.84,13.76891089,2.02517517,-9.261919941,11.68702517,pomelo_1
758.8,1.97275,93.3775,1,54.5229,18.6641,2018-07-04T11:25:51Z,121.82,47154,1,121.82,1,N,51.47960968,4430.81835,-113.0654984,-4.03,164.8,12.2,-0.1,12.13333333,122.35,355.7903608,2.224972574,-8.859302277,10.954773,pomelo_1
759.1,1.96869,93.388,1,54.4259,18.7125,2018-07-04T11:25:50Z,122.03,47144,1,122.03,1,N,51.47966739,4429.876062,-113.065645,-4.39,165,11.56,-0.8,11.975,122.57,346.7162638,2.395133866,-8.698255211,10.39111793,pomelo_1
759.5,1.97142,93.398,1,54.5072,18.5622,2018-07-04T11:25:49Z,121.61,47134,1,121.61,1,N,51.47971867,4428.938492,-113.0657755,-4.27,165.1,9.91,-0.2,11.90555556,122.08,326.4701358,3.40897735,-8.617731678,8.912688368,pomelo_1
759.9,1.98696,93.4062,1,54.4799,18.3907,2018-07-04T11:25:48Z,121.02,47124,1,121.02,1,N,51.47976829,4428.000859,-113.0659062,-3.97,149.3,9.47,1.8,11.69444444,121.52,338.3432562,5.246326424,-22.26000119,8.127697996,pomelo_1
760.2,1.9793,93.3951,1,54.4975,18.4112,2018-07-04T11:25:47Z,120.61,47114,1,120.61,1,N,51.47982342,4427.06326,-113.0660507,-4.21,154.7,10.43,0.5,11.76388889,120.97,341.3961424,4.140558026,-16.95638588,9.020780531,pomelo_1
760.5,1.98138,93.3968,1,54.4612,18.3487,2018-07-04T11:25:46Z,119.74,47104,1,119.74,1,N,51.4798723,4426.104888,-113.066182,-4.03,155.3,8.32,0.6,11.68333333,119.94,323.3391497,5.207832859,-16.47694743,7.206927474,pomelo_1
760.9,1.98128,93.4033,1,54.6909,18.3414,2018-07-04T11:25:45Z,119.12,47094,1,119.12,1,N,51.47992496,4425.167322,-113.0663286,-4.12,142.2,9.01,0.5,11.68611111,119.48,339.9947762,6.801328713,-33.78298255,7.872363949,pomelo_1
761.2,1.98879,93.3927,1,54.5747,18.374,2018-07-04T11:25:44Z,118.01,47084,1,118.01,1,N,51.47997031,4424.229688,-113.0664592,-3.91,140.9,10.15,1.8,11.47222222,118.45,349.2191196,6.805706456,-35.8928242,8.897805823,pomelo_1
761.5,1.98919,93.3892,1,54.638,18.3391,2018-07-04T11:25:43Z,117.17,47074,1,117.17,1,N,51.48001879,4423.292087,-113.0666041,-3.57,147,10.5,0.9,11.25,117.23,349.2557165,5.049909487,-25.99279797,9.063718815,pomelo_1
761.7,1.98231,93.3792,1,54.5601,18.5111,2018-07-04T11:25:42Z,115.29,47064,1,115.29,1,N,51.48006,4422.354485,-113.0667323,-3.45,150.2,8.83,-3.2,10.89722222,116.36,332.3370322,4.794476735,-20.79934158,7.561432891,pomelo_1
761.9,1.98026,93.371,1,54.5911,18.4397,2018-07-04T11:25:41Z,109.88,47054,1,109.88,1,N,51.48009588,4421.414932,-113.0668603,-3.09,148.1,10.01,-6,10.72777778,111,342.4342175,4.71454568,-24.20754733,8.616957924,pomelo_1
762.1,1.9762,93.3557,1,54.629,18.688,2018-07-04T11:25:40Z,89.4,47034,1,89.4,1,N,51.48013374,4419.539732,-113.067143,-2.71,151.1,9.73,-3.4,10.53055556,91.25,319.1681903,4.15105373,-19.83301659,8.338576529,pomelo_1
762,1.97949,93.3563,1,54.5995,18.5485,2018-07-04T11:25:40Z,101.59,47044,1,101.59,1,N,51.48012372,4420.477332,-113.0670067,-2.6,150.5,12.14,-6.9,10.49722222,101.81,359.8920449,3.723783524,-20.31245504,10.38814118,pomelo_1
762.3,1.98324,93.3546,1,54.7779,18.6092,2018-07-04T11:25:39Z,76.79,47024,1,76.79,1,N,51.48012782,4418.602132,-113.0672761,-3.48,155.5,12.07,-4.5,9.997222222,76.87,347.6058463,2.953203188,-16.31713462,10.46060161,pomelo_1
762.7,1.97229,93.3505,1,54.5838,18.6764,2018-07-04T11:25:38Z,62.66,47014,1,62.66,1,N,51.48010134,4417.650576,-113.0674096,-4.6,159.7,11.63,-4.4,9.5,65.89,341.6149711,2.855343355,-12.96106546,10.18895286,pomelo_1
763,1.98324,93.3276,1,54.6269,18.5016,2018-07-04T11:25:37Z,52.46,47004,1,52.46,1,N,51.48006391,4416.712976,-113.0675141,-4.54,153.3,12.96,-3.9,9.269444444,54.62,342.0142463,4.048155801,-18.0750756,11.16895162,pomelo_1
763.4,1.97345,93.3158,1,54.6392,18.5231,2018-07-04T11:25:36Z,42.8,46994,1,42.8,1,N,51.48001015,4415.75975,-113.0676146,-4.9,159.6,14.2,-2.1,9.119444444,44.2,357.5200417,4.26323208,-13.04097187,12.43728751,pomelo_1
763.7,1.98553,93.3141,1,54.4292,18.4939,2018-07-04T11:25:35Z,37.75,46984,1,37.75,1,N,51.47995463,4414.82215,-113.0676915,-4.79,152.3,15.74,2.6,8.863888889,39.21,348.3264643,6.059939283,-18.87413969,13.53027634,pomelo_1
763.9,1.98333,93.3281,1,54.4953,18.5055,2018-07-04T11:25:34Z,37.88,46974,1,37.88,1,N,51.47989439,4413.888381,-113.0677678,-4.02,156,12.49,3,7.880555556,39.18,346.7977054,4.050252448,-15.91760257,10.83848915,pomelo_1
764.1,1.97905,93.344,1,54.6562,18.5106,2018-07-04T11:25:33Z,45.91,46964,1,45.91,1,N,51.47984953,4412.944516,-113.0678297,-3.1,150.2,11.28,6.4,6.7,43.94,352.0173814,3.960464181,-20.79934158,9.65945221,pomelo_1
764.2,1.9741,93.361,1,54.7882,18.5323,2018-07-04T11:25:32Z,58.43,46954,1,58.43,1,N,51.4798169,4412.006916,-113.0678894,-2.23,141.6,10.12,9.7,5.552777778,54.67,348.751681,4.995370743,-34.75675562,8.855708224,pomelo_1
764.2,1.98131,93.3921,1,54.5758,18.4058,2018-07-04T11:25:31Z,79.83,46944,1,79.83,1,N,51.47979649,4411.069315,-113.0679546,-0.35,131.5,8.12,8.7,4.736111111,72.9,357.0053904,4.45387054,-43.50537855,7.249082932,pomelo_1
764.1,1.97586,93.3927,1,54.4812,18.5029,2018-07-04T11:25:30Z,97.84,46934,1,97.84,1,N,51.47979165,4410.131714,-113.068011,0.99,109.6,5.74,8,4.069444444,89.11,340.9237194,4.407326035,-65.97410105,4.97889315,pomelo_1
763.9,1.97804,93.3851,1,54.3689,18.5172,2018-07-04T11:25:29Z,109.82,46924,1,109.82,1,N,51.47979691,4409.18859,-113.0680607,1.76,88.6,4.89,3.3,2.861111111,106.86,347.8912743,4.830571607,-85.92529024,4.258246278,pomelo_1
763.7,1.97406,93.3915,1,54.3528,18.553,2018-07-04T11:25:28Z,115.32,46914,1,115.32,1,N,51.4798039,4408.250993,-113.0680919,1.67,78.6,3.6,3.3,2.363888889,114.48,342.7868101,4.307648693,-99.69830406,3.25542566,pomelo_1
763.6,1.96291,93.3933,1,54.2785,18.5216,2018-07-04T11:25:27Z,116.94,46904,1,116.94,1,N,51.479812,4407.313388,-113.0681195,1.66,97.4,3.63,3.4,2.694444444,116.71,353.3460827,3.581428652,-76.6087302,3.077755087,pomelo_1
763.3,1.96723,93.3957,1,54.3005,18.4649,2018-07-04T11:25:26Z,117.99,46894,1,117.99,1,N,51.47982613,4406.375787,-113.0681632,1.65,120.1,3.3,4.2,4.305555556,118.57,341.0990071,3.501997531,-53.34209306,2.928943651,pomelo_1
763,1.96653,93.3957,1,54.3115,18.4033,2018-07-04T11:25:25Z,118.88,46884,1,118.88,1,N,51.47984564,4405.399648,-113.0682197,1.68,149.1,4.29,4,5.797222222,119.51,330.5613957,2.81510616,-22.58459221,3.683762757,pomelo_1
762,1.98083,93.4009,1,54.4065,18.2858,2018-07-04T11:25:24Z,119.5,46864,1,119.5,1,N,51.47990244,4403.50882,-113.0683785,1.99,145.5,5.62,4.4,7.538888889,120.07,335.8146338,4.040943287,-28.42723065,4.869578416,pomelo_1
762.5,1.9738,93.3927,1,54.3452,18.2822,2018-07-04T11:25:24Z,119.03,46874,1,119.03,1,N,51.47987356,4404.446457,-113.0682981,1.96,142.7,5.81,3.6,6.830555556,120.14,347.3341186,3.872456286,-32.97150498,5.069968541,pomelo_1
761.4,1.97754,93.4004,1,54.4701,18.2747,2018-07-04T11:25:23Z,120.45,46854,1,120.45,1,N,51.47993811,4402.571219,-113.0684747,1.73,148,7.53,4,7.936111111,121.39,354.574715,3.462365608,-24.36984285,6.483709883,pomelo_1
760.8,1.98201,93.4009,1,54.389,18.2334,2018-07-04T11:25:22Z,121.21,46844,1,121.21,1,N,51.47997238,4401.617991,-113.0685642,1.53,153.1,7.69,4.2,8.355555556,122.15,348.1747654,3.02322169,-18.23488842,6.623879586,pomelo_1
760.2,1.97456,93.4009,1,54.4056,18.1772,2018-07-04T11:25:21Z,122.2,46834,1,122.2,1,N,51.48001347,4400.673213,-113.0686682,1.12,152.2,7.29,4.8,8.922222222,123.15,338.2792617,3.706636671,-18.9540461,6.264971138,pomelo_1
759.7,1.98351,93.4162,1,54.4344,18.0285,2018-07-04T11:25:20Z,122.85,46824,1,122.85,1,N,51.48005395,4399.735613,-113.0687668,0.54,152.5,7.07,4,9.383333333,123.36,332.1599223,4.155920537,-18.71432687,6.080541002,pomelo_1
759.3,1.98788,93.418,1,54.4553,17.9514,2018-07-04T11:25:19Z,123.1,46814,1,123.1,1,N,51.48009783,4398.798012,-113.0688714,0,151,8.08,2.8,10.24444444,123.57,336.2743399,4.462584921,-19.912923,6.922777648,pomelo_1
758.8,1.98798,93.4051,1,54.3775,17.9726,2018-07-04T11:25:18Z,123.32,46804,1,123.32,1,N,51.48015071,4397.860411,-113.0689967,-0.4,148.8,10.68,1,10.93055556,124.61,0.43774673,4.575682779,-23.07147875,9.177639379,pomelo_1
758.4,1.9783,93.3986,1,54.4367,18.2019,2018-07-04T11:25:17Z,122.95,46794,1,122.95,1,N,51.48020164,4396.923433,-113.0691162,-1.16,153.6,11.72,-3,11.43611111,123.52,3.486101393,3.686476995,-17.83535638,10.10804602,pomelo_1
758.1,1.97918,93.4174,1,54.5616,18.3598,2018-07-04T11:25:16Z,121.78,46784,1,121.78,1,N,51.48025816,4395.985833,-113.0692548,-2.17,147.1,10.07,-4.7,11.60277778,122.09,347.2960688,5.395292443,-25.83050245,8.690357043,pomelo_1
758.1,1.97696,93.4021,1,54.4964,18.2235,2018-07-04T11:25:15Z,120.49,46774,1,120.49,1,N,51.48030725,4395.048231,-113.0693854,-2.5,152.3,11.35,1.6,12.02222222,120.91,349.7962483,4.278903292,-18.87413969,9.756584273,pomelo_1
758.1,1.98467,93.3992,1,54.3532,17.9896,2018-07-04T11:25:14Z,120.01,46764,1,120.01,1,N,51.48035761,4394.110631,-113.0695201,-2.57,155,11.65,-0.4,12.39444444,120.87,348.4598851,4.124254945,-16.71666666,10.08368137,pomelo_1
758.1,1.98607,93.3563,1,54.5004,18.1118,2018-07-04T11:25:13Z,119.69,46754,1,119.69,1,N,51.48041567,4393.161053,-113.0696787,-2.32,161.5,13.8,0.5,13.06111111,119.74,4.905061918,2.690662751,-11.51657886,12.17833081,pomelo_1
758,1.98105,93.3751,1,54.3872,18.4011,2018-07-04T11:25:12Z,120.16,46744,1,120.16,1,N,51.48046996,4392.217493,-113.0698274,-2.58,157,14.83,0.1,13.63611111,121.06,11.93121481,3.768413503,-15.11853849,12.9021902,pomelo_1
758.1,1.96482,93.3698,1,54.6495,18.4513,2018-07-04T11:25:11Z,120.35,46734,1,120.35,1,N,51.4805337,4391.279928,-113.070001,-3.58,151.2,15.26,-0.1,14.49444444,120.56,4.341553734,4.978261108,-19.75311018,13.08108287,pomelo_1
758.4,1.96645,93.3364,1,54.5789,18.3993,2018-07-04T11:25:10Z,120.22,46724,1,120.22,1,N,51.48059489,4390.342289,-113.0701666,-3.88,157.7,17.79,-2.8,15.28611111,120.77,26.28829019,4.054007316,-14.55919363,15.50533425,pomelo_1
758.7,1.96898,93.3311,1,54.4016,18.4106,2018-07-04T11:25:09Z,119.75,46714,1,119.75,1,N,51.48065819,4389.404688,-113.0703419,-4.25,163.9,16.21,1.2,16.075,119.56,352.5421458,2.961372665,-9.584014072,14.48633763,pomelo_1
759.6,1.96797,93.3064,1,54.2974,18.1255,2018-07-04T11:25:08Z,118.47,46694,1,118.47,1,N,51.48079771,4387.523904,-113.0707377,-4.4,161.8,16.4,6.6,17.17777778,118.89,343.4548568,4.187247582,-11.27500826,14.49546462,pomelo_1
759.1,1.96272,93.3105,1,54.4686,18.3903,2018-07-04T11:25:08Z,119.19,46704,1,119.19,1,N,51.48073117,4388.461503,-113.070546,-4.18,160.7,17.71,-1,16.65555556,119.9,6.74583678,3.77063936,-12.16076712,15.56396071,pomelo_1
760.2,1.97913,93.297,1,54.5446,18.1643,2018-07-04T11:25:07Z,119.27,46684,1,119.27,1,N,51.48087585,4386.5863,-113.0709566,-4.58,154.7,18.39,2.8,17.825,119.97,1.016613752,5.513281791,-16.95638588,15.90528801,pomelo_1
760.8,1.97568,93.2735,1,54.4688,18.3104,2018-07-04T11:25:06Z,119.24,46674,1,119.24,1,N,51.48094818,4385.648698,-113.071158,-5.14,159.3,18.64,5.5,18.13888889,120.05,359.798974,4.597718832,-13.28069109,16.31345263,pomelo_1
761.6,1.97385,93.233,1,54.5564,18.4194,2018-07-04T11:25:05Z,120.06,46664,1,120.06,1,N,51.48102164,4384.711911,-113.0713617,-5.59,161.3,19.99,6.5,18.28888889,120.27,14.22114075,3.777338222,-11.67762593,17.62255969,pomelo_1
762.5,1.96834,93.226,1,54.3129,18.3862,2018-07-04T11:25:04Z,120.76,46654,1,120.76,1,N,51.48110723,4383.774309,-113.0715888,-5.79,165.1,21.2,4,18.53611111,121.42,36.64255297,3.086719839,-8.617731678,19.06649782,pomelo_1
763.5,1.96231,93.2278,1,54.4995,18.3093,2018-07-04T11:25:03Z,121.47,46644,1,121.47,1,N,51.48118599,4382.836709,-113.0717954,-6.06,169,21.06,3.4,18.86111111,121.99,42.48331978,2.055181076,-5.477313897,19.3412612,pomelo_1
764.6,1.96806,93.2172,1,54.502,18.3669,2018-07-04T11:25:02Z,122.07,46634,1,122.07,1,N,51.48126767,4381.899108,-113.072003,-6.64,166.4,19.58,-0.3,19,122.26,1.406636636,2.789251221,-7.570925751,17.73197499,pomelo_1
766,1.96049,93.2113,1,54.6126,18.69,2018-07-04T11:25:01Z,122.39,46624,1,122.39,1,N,51.48135867,4380.961506,-113.0722347,-6.94,167.3,19.55,-0.8,19.04166667,122.14,358.3224941,2.459773659,-6.846213956,17.79044729,pomelo_1
767.3,1.96018,93.179,1,54.7137,18.3297,2018-07-04T11:25:00Z,122.79,46614,1,122.79,1,N,51.48144055,4380.028924,-113.0724426,-7.33,165.4,20.05,-0.1,18.93055556,122.9,11.07680912,2.871023558,-8.37616108,18.06101121,pomelo_1
768.9,1.96721,93.2189,1,54.7335,18.1951,2018-07-04T11:24:59Z,122.98,46604,1,122.98,1,N,51.48153217,4379.091324,-113.0726712,-7.44,170.8,16.18,0.1,18.83333333,122.75,316.7910426,4.00721955,-3.951816835,14.97742855,pomelo_1
770.4,1.96816,93.1767,1,54.6666,18.208,2018-07-04T11:24:58Z,124.61,46594,1,124.61,1,N,51.48161586,4378.153755,-113.0728751,-7.76,162,19.08,1.9,18.77222222,124.4,359.8955024,3.875136447,-11.1139612,16.88186134,pomelo_1
771.9,1.96063,93.1579,1,54.642,18.0082,2018-07-04T11:24:57Z,126.35,46584,1,126.35,1,N,51.48170331,4377.216123,-113.0730729,-8.19,168.6,18.42,-0.2,18.68888889,126.09,346.8914891,2.49363471,-5.799408029,16.88009144,pomelo_1
773.7,1.97226,93.1696,1,54.7428,18.0534,2018-07-04T11:24:56Z,128.22,46574,1,128.22,1,N,51.48180452,4376.289103,-113.0732876,-8.39,166.5,15.64,-0.3,18.74166667,128.05,329.1245696,5.02163169,-7.490402219,14.17142511,pomelo_1
775.4,1.96011,93.1274,1,54.5109,18.0545,2018-07-04T11:24:55Z,130.64,46564,1,130.64,1,N,51.48189932,4375.351501,-113.073475,-8.97,166.3,17.44,-0.3,18.58611111,130.16,344.1374005,3.52615038,-7.651449284,15.78551199,pomelo_1
777.3,1.97675,93.115,1,54.641,17.8053,2018-07-04T11:24:54Z,132.42,46554,1,132.42,1,N,51.48199786,4374.413902,-113.0736549,-8.79,169.8,17.2,-1.8,18.31666667,131.82,336.9655799,2.756005119,-4.833125635,15.86512582,pomelo_1
781,1.97088,93.0833,1,54.6548,17.874,2018-07-04T11:24:53Z,136.14,46534,1,136.14,1,N,51.4822111,4372.523328,-113.0740123,-8.13,165.9,16.81,-0.5,17.79722222,135.65,351.4306102,3.38205577,-7.973543416,15.18281228,pomelo_1
779.4,1.97889,93.118,1,54.8362,17.7314,2018-07-04T11:24:53Z,134.12,46544,1,134.12,1,N,51.48210885,4373.476301,-113.0738474,-8.61,167.2,15.61,0,18.02777778,134.3,338.3307659,4.313267833,-6.926737489,14.19742735,pomelo_1
782.8,1.95927,93.0657,1,54.5665,17.6683,2018-07-04T11:24:52Z,137.66,46524,1,137.66,1,N,51.48232667,4371.578239,-113.074187,-8.22,171.6,15.67,1.8,17.53055556,137.75,332.5472555,3.162939155,-3.104765982,14.49504064,pomelo_1
784.3,1.96274,93.0505,1,54.8066,17.9137,2018-07-04T11:24:51Z,140.27,46514,1,140.27,1,N,51.48243343,4370.640639,-113.0743357,-8.21,170.3,16.06,0.7,17.44444444,140.31,344.0259827,2.878678699,-4.430507971,14.8540611,pomelo_1
785.8,1.97321,93.0546,1,54.7202,17.6306,2018-07-04T11:24:50Z,141.87,46504,1,141.87,1,N,51.48254264,4369.703037,-113.0744775,-8.14,166.8,14.35,2.9,17.27222222,142.2,343.691148,4.688499299,-7.24883162,13.02346328,pomelo_1
787.4,1.96962,93.0317,1,54.8416,17.8983,2018-07-04T11:24:49Z,144.66,46494,1,144.66,1,N,51.48266707,4368.765437,-113.0746254,-8.28,168.9,14.53,2.8,17.22222222,144.57,342.4217094,4.145552577,-5.55783743,13.33695029,pomelo_1
788.9,1.9733,93.0176,1,54.818,17.7472,2018-07-04T11:24:48Z,146.65,46484,1,146.65,1,N,51.4827821,4367.830741,-113.0747506,-8.16,163.7,15.32,4,17.24444444,146.71,358.433097,4.429445297,-9.745061138,13.67653686,pomelo_1
790.4,1.98422,93.0105,1,54.8231,17.5761,2018-07-04T11:24:47Z,148.94,46474,1,148.94,1,N,51.48291404,4366.893139,-113.0748825,-8.37,168.7,14.64,2.6,17.30555556,149.56,350.0585118,4.232238464,-5.718884496,13.42336403,pomelo_1
791.8,1.97901,92.9782,1,54.7812,17.7475,2018-07-04T11:24:46Z,151.74,46464,1,151.74,1,N,51.48303736,4365.95554,-113.0749935,-8.31,167.6,15.3,3,17.56944444,151.65,354.7243438,4.03702098,-6.604643357,13.94544415,pomelo_1
793.2,1.96828,92.9542,1,54.8149,17.9176,2018-07-04T11:24:45Z,153.75,46454,1,153.75,1,N,51.48316457,4365.017976,-113.0750974,-8.01,170.6,16.12,1.4,17.65,153.91,356.031423,2.987878772,-4.163579548,14.92453764,pomelo_1
794.6,1.9754,92.9577,1,54.6264,17.7627,2018-07-04T11:24:44Z,155.3,46444,1,155.3,1,N,51.48330858,4364.080071,-113.075205,-8.06,167,14.72,2.4,17.59166667,156.06,358.8632549,4.71157396,-7.087784554,13.37359695,pomelo_1
795.9,1.96863,92.9377,1,54.5488,17.6636,2018-07-04T11:24:43Z,156.9,46434,1,156.9,1,N,51.48343929,4363.141437,-113.0752951,-8.1,166.5,14.38,2.3,17.52777778,157.53,359.2142069,4.981179966,-7.490402219,13.02973741,pomelo_1
797.2,1.97488,92.9231,1,54.4719,17.8729,2018-07-04T11:24:42Z,158.66,46424,1,158.66,1,N,51.48357009,4362.203834,-113.0753782,-7.83,167.8,14.98,3,17.29166667,159.85,5.719666023,4.161318562,-6.443596292,13.66849102,pomelo_1
798.5,1.97301,92.9113,1,54.6511,17.8725,2018-07-04T11:24:41Z,160.75,46414,1,160.75,1,N,51.48371728,4361.266233,-113.0754617,-7.75,165.3,15.4,2.8,17.48333333,161.73,12.57888643,4.433244002,-8.456684613,13.86492136,pomelo_1
799.6,1.97071,92.9054,1,54.8322,17.9295,2018-07-04T11:24:40Z,163.1,46404,1,163.1,1,N,51.48385304,4360.328633,-113.0755289,-7.63,167,15.12,2.8,17.57222222,164.52,11.53305704,4.474535743,-7.087784554,13.73700991,pomelo_1
801,1.97418,92.8925,1,54.7621,17.7116,2018-07-04T11:24:39Z,165.7,46394,1,165.7,1,N,51.48400667,4359.377003,-113.075592,-7.33,174.5,15.24,2.1,17.60833333,167.09,352.7099468,3.568718978,-0.034206642,14.06111166,pomelo_1
802.1,1.97472,92.8767,1,54.5687,17.7487,2018-07-04T11:24:38Z,167.5,46384,1,167.5,1,N,51.48414568,4358.439402,-113.0756406,-7.43,168.3,14.99,2.5,17.43611111,168.13,10.79923496,4.133745756,-6.040978627,13.71457006,pomelo_1